{"type": "FeatureCollection",  "features": [{"type": "Feature","properties": {"marker-color": "#000000","marker-size": "small","name": "Черничи (Житковичский район)", "link": "http://www.wikidata.org/entity/Q4513722"},"geometry": {"type": "Point","coordinates": [27.822777777,52.066666666]}},{"type": "Feature","properties": {"marker-color": "#000000","marker-size": "small","name": "Чернобель", "link": "http://www.wikidata.org/entity/Q4513751"},"geometry": {"type": "Point","coordinates": [30.051944444,53.731388888]}},{"type": "Feature","properties": {"marker-color": "#000000","marker-size": "small","name": "Черновщина (Калинковичский район)", "link": "http://www.wikidata.org/entity/Q4513897"},"geometry": {"type": "Point","coordinates": [29.570833333,51.900555555]}},{"type": "Feature","properties": {"marker-color": "#000000","marker-size": "small","name": "Чернозёмовка (деревня)", "link": "http://www.wikidata.org/entity/Q4513987"},"geometry": {"type": "Point","coordinates": [30.1988,53.8166]}},{"type": "Feature","properties": {"marker-color": "#000000","marker-size": "small","name": "Чернявка (Октябрьский район)", "link": "http://www.wikidata.org/entity/Q4514397"},"geometry": {"type": "Point","coordinates": [29.278333333,52.633333333]}},{"type": "Feature","properties": {"marker-color": "#000000","marker-size": "small","name": "Черни", "link": "http://www.wikidata.org/entity/Q735934"},"geometry": {"type": "Point","coordinates": [23.756666666,52.152222222]}},{"type": "Feature","properties": {"marker-color": "#000000","marker-size": "small","name": "Черноосово", "link": "http://www.wikidata.org/entity/Q6546420"},"geometry": {"type": "Point","coordinates": [29.1725,54.08472222]}},{"type": "Feature","properties": {"marker-color": "#000000","marker-size": "small","name": "Черноосово", "link": "http://www.wikidata.org/entity/Q6546420"},"geometry": {"type": "Point","coordinates": [29.171944444,54.085555555]}},{"type": "Feature","properties": {"marker-color": "#000000","marker-size": "small","name": "Чернаки", "link": "http://www.wikidata.org/entity/Q6546457"},"geometry": {"type": "Point","coordinates": [23.8825,52.478055555]}},{"type": "Feature","properties": {"marker-color": "#000000","marker-size": "small","name": "Чернаки", "link": "http://www.wikidata.org/entity/Q6546457"},"geometry": {"type": "Point","coordinates": [23.880555555,52.479722222]}},{"type": "Feature","properties": {"marker-color": "#000000","marker-size": "small","name": "Черневичи", "link": "http://www.wikidata.org/entity/Q6546501"},"geometry": {"type": "Point","coordinates": [28.095555555,55.331555555]}},{"type": "Feature","properties": {"marker-color": "#000000","marker-size": "small","name": "Чернеевичи", "link": "http://www.wikidata.org/entity/Q6546510"},"geometry": {"type": "Point","coordinates": [25.993777777,52.142638888]}},{"type": "Feature","properties": {"marker-color": "#000000","marker-size": "small","name": "Черное", "link": "http://www.wikidata.org/entity/Q6546528"},"geometry": {"type": "Point","coordinates": [30.503333333,54.394166666]}},{"type": "Feature","properties": {"marker-color": "#000000","marker-size": "small","name": "Чернуха", "link": "http://www.wikidata.org/entity/Q6546540"},"geometry": {"type": "Point","coordinates": [24.081972222,53.923555555]}},{"type": "Feature","properties": {"marker-color": "#000000","marker-size": "small","name": "Черняково", "link": "http://www.wikidata.org/entity/Q6546553"},"geometry": {"type": "Point","coordinates": [24.918888888,52.351666666]}},{"type": "Feature","properties": {"marker-color": "#000000","marker-size": "small","name": "Чернявские", "link": "http://www.wikidata.org/entity/Q6546584"},"geometry": {"type": "Point","coordinates": [30.348194444,54.692111111]}},{"type": "Feature","properties": {"marker-color": "#000000","marker-size": "small","name": "Чернявщина", "link": "http://www.wikidata.org/entity/Q6546604"},"geometry": {"type": "Point","coordinates": [27.369111111,55.79625]}},{"type": "Feature","properties": {"marker-color": "#000000","marker-size": "small","name": "Чернички", "link": "http://www.wikidata.org/entity/Q6546678"},"geometry": {"type": "Point","coordinates": [27.34475,55.480111111]}},{"type": "Feature","properties": {"marker-color": "#000000","marker-size": "small","name": "Черничное", "link": "http://www.wikidata.org/entity/Q6546688"},"geometry": {"type": "Point","coordinates": [24.698333333,52.550277777]}},{"type": "Feature","properties": {"marker-color": "#000000","marker-size": "small","name": "Черничное", "link": "http://www.wikidata.org/entity/Q6546693"},"geometry": {"type": "Point","coordinates": [24.318361111,52.381166666]}},{"type": "Feature","properties": {"marker-color": "#000000","marker-size": "small","name": "Чернево", "link": "http://www.wikidata.org/entity/Q6547484"},"geometry": {"type": "Point","coordinates": [27.263388888,55.731333333]}},{"type": "Feature","properties": {"marker-color": "#000000","marker-size": "small","name": "Черневичи", "link": "http://www.wikidata.org/entity/Q6547493"},"geometry": {"type": "Point","coordinates": [26.004416666,53.864888888]}},{"type": "Feature","properties": {"marker-color": "#000000","marker-size": "small","name": "Черневка", "link": "http://www.wikidata.org/entity/Q6547508"},"geometry": {"type": "Point","coordinates": [28.86083333,54.05333333]}},{"type": "Feature","properties": {"marker-color": "#000000","marker-size": "small","name": "Чернушка", "link": "http://www.wikidata.org/entity/Q6547516"},"geometry": {"type": "Point","coordinates": [26.084166666,54.3525]}},{"type": "Feature","properties": {"marker-color": "#000000","marker-size": "small","name": "Чернушка", "link": "http://www.wikidata.org/entity/Q6547516"},"geometry": {"type": "Point","coordinates": [26.084638888,54.350777777]}},{"type": "Feature","properties": {"marker-color": "#000000","marker-size": "small","name": "Черники", "link": "http://www.wikidata.org/entity/Q6547531"},"geometry": {"type": "Point","coordinates": [25.229138888,53.946666666]}},{"type": "Feature","properties": {"marker-color": "#000000","marker-size": "small","name": "Черняты", "link": "http://www.wikidata.org/entity/Q13134296"},"geometry": {"type": "Point","coordinates": [26.88277778,54.00222222]}},{"type": "Feature","properties": {"marker-color": "#000000","marker-size": "small","name": "Черняты", "link": "http://www.wikidata.org/entity/Q13134296"},"geometry": {"type": "Point","coordinates": [26.884444444,55.006111111]}},{"type": "Feature","properties": {"marker-color": "#000000","marker-size": "small","name": "Чернишки", "link": "http://www.wikidata.org/entity/Q13134312"},"geometry": {"type": "Point","coordinates": [26.0625,54.683055555]}},{"type": "Feature","properties": {"marker-color": "#000000","marker-size": "small","name": "Чернишки", "link": "http://www.wikidata.org/entity/Q13134312"},"geometry": {"type": "Point","coordinates": [26.062222222,54.684333333]}},{"type": "Feature","properties": {"marker-color": "#000000","marker-size": "small","name": "Чернавцы", "link": "http://www.wikidata.org/entity/Q13662031"},"geometry": {"type": "Point","coordinates": [30.957410433,53.930395212]}},{"type": "Feature","properties": {"marker-color": "#000000","marker-size": "small","name": "Новая Черневка", "link": "http://www.wikidata.org/entity/Q16681143"},"geometry": {"type": "Point","coordinates": [30.8147,54.1006]}},{"type": "Feature","properties": {"marker-color": "#000000","marker-size": "small","name": "Черневка", "link": "http://www.wikidata.org/entity/Q16717867"},"geometry": {"type": "Point","coordinates": [30.7703,54.0878]}},{"type": "Feature","properties": {"marker-color": "#000000","marker-size": "small","name": "Черница", "link": "http://www.wikidata.org/entity/Q16717911"},"geometry": {"type": "Point","coordinates": [29.1639,53.2181]}},{"type": "Feature","properties": {"marker-color": "#000000","marker-size": "small","name": "Черноречка", "link": "http://www.wikidata.org/entity/Q16718001"},"geometry": {"type": "Point","coordinates": [31.1514,54.0144]}},{"type": "Feature","properties": {"marker-color": "#000000","marker-size": "small","name": "Черница", "link": "http://www.wikidata.org/entity/Q16723237"},"geometry": {"type": "Point","coordinates": [28.13166667,54.0]}},{"type": "Feature","properties": {"marker-color": "#000000","marker-size": "small","name": "Чернова", "link": "http://www.wikidata.org/entity/Q16723253"},"geometry": {"type": "Point","coordinates": [28.339444444,53.860833333]}},{"type": "Feature","properties": {"marker-color": "#000000","marker-size": "small","name": "Чернова", "link": "http://www.wikidata.org/entity/Q16723253"},"geometry": {"type": "Point","coordinates": [28.3375,53.86194444]}},{"type": "Feature","properties": {"marker-color": "#000000","marker-size": "small","name": "Черневщина", "link": "http://www.wikidata.org/entity/Q16723291"},"geometry": {"type": "Point","coordinates": [26.863055555,54.120277777]}},{"type": "Feature","properties": {"marker-color": "#000000","marker-size": "small","name": "Черневщина", "link": "http://www.wikidata.org/entity/Q16723291"},"geometry": {"type": "Point","coordinates": [26.86361111,54.12055556]}},{"type": "Feature","properties": {"marker-color": "#000000","marker-size": "small","name": "Чернево", "link": "http://www.wikidata.org/entity/Q16723202"},"geometry": {"type": "Point","coordinates": [26.85805556,54.10805556]}},{"type": "Feature","properties": {"marker-color": "#000000","marker-size": "small","name": "Черневичи", "link": "http://www.wikidata.org/entity/Q16723204"},"geometry": {"type": "Point","coordinates": [28.74972222,54.03833333]}},{"type": "Feature","properties": {"marker-color": "#000000","marker-size": "small","name": "Черниковщина", "link": "http://www.wikidata.org/entity/Q16723231"},"geometry": {"type": "Point","coordinates": [28.07638889,53.99722222]}},{"type": "Feature","properties": {"marker-color": "#000000","marker-size": "small","name": "Черниковщина", "link": "http://www.wikidata.org/entity/Q16723231"},"geometry": {"type": "Point","coordinates": [28.080555555,53.995277777]}},{"type": "Feature","properties": {"marker-color": "#000000","marker-size": "small","name": "Велюнь (Чернинский сельсовет)", "link": "http://www.wikidata.org/entity/Q4107045"},"geometry": {"type": "Point","coordinates": [23.838194444,52.184444444]}},{"type": "Feature","properties": {"marker-color": "#000000","marker-size": "small","name": "Черноручье", "link": "http://www.wikidata.org/entity/Q19953781"},"geometry": {"type": "Point","coordinates": [30.8275,55.040833333]}},{"type": "Feature","properties": {"marker-color": "#000000","marker-size": "small","name": "Великая Черница", "link": "http://www.wikidata.org/entity/Q19953802"},"geometry": {"type": "Point","coordinates": [30.101111111,55.015]}},{"type": "Feature","properties": {"marker-color": "#000000","marker-size": "small","name": "Селяхи (Чернинский сельсовет)", "link": "http://www.wikidata.org/entity/Q4415044"},"geometry": {"type": "Point","coordinates": [23.775,52.172777777]}},{"type": "Feature","properties": {"marker-color": "#000000","marker-size": "small","name": "Чернаки (Брестский район)", "link": "http://www.wikidata.org/entity/Q4513322"},"geometry": {"type": "Point","coordinates": [23.716005555,52.194286111]}},{"type": "Feature","properties": {"marker-color": "#000000","marker-size": "small","name": "Чернев (Брагинский район)", "link": "http://www.wikidata.org/entity/Q4513341"},"geometry": {"type": "Point","coordinates": [30.416666666,51.55]}},{"type": "Feature","properties": {"marker-color": "#000000","marker-size": "small","name": "Чернейки (Речицкий район)", "link": "http://www.wikidata.org/entity/Q4513369"},"geometry": {"type": "Point","coordinates": [30.973611111,52.544722222]}},{"type": "Feature","properties": {"marker-color": "#000000","marker-size": "small","name": "Черничи (Житковичский район)", "link": "http://www.wikidata.org/entity/Q4513722"},"geometry": {"type": "Point","coordinates": [27.822777777,52.066666666]}},{"type": "Feature","properties": {"marker-color": "#000000","marker-size": "small","name": "Чернобель", "link": "http://www.wikidata.org/entity/Q4513751"},"geometry": {"type": "Point","coordinates": [30.051944444,53.731388888]}},{"type": "Feature","properties": {"marker-color": "#000000","marker-size": "small","name": "Черновщина (Калинковичский район)", "link": "http://www.wikidata.org/entity/Q4513897"},"geometry": {"type": "Point","coordinates": [29.570833333,51.900555555]}},{"type": "Feature","properties": {"marker-color": "#000000","marker-size": "small","name": "Чернозёмовка (деревня)", "link": "http://www.wikidata.org/entity/Q4513987"},"geometry": {"type": "Point","coordinates": [30.1988,53.8166]}},{"type": "Feature","properties": {"marker-color": "#000000","marker-size": "small","name": "Чернявка (Октябрьский район)", "link": "http://www.wikidata.org/entity/Q4514397"},"geometry": {"type": "Point","coordinates": [29.278333333,52.633333333]}},{"type": "Feature","properties": {"marker-color": "#000000","marker-size": "small","name": "Черногостье", "link": "http://www.wikidata.org/entity/Q20190154"},"geometry": {"type": "Point","coordinates": [29.719444444,55.093055555]}},{"type": "Feature","properties": {"marker-color": "#000000","marker-size": "small","name": "Черноземье", "link": "http://www.wikidata.org/entity/Q20190156"},"geometry": {"type": "Point","coordinates": [26.568888888,55.471388888]}},{"type": "Feature","properties": {"marker-color": "#000000","marker-size": "small","name": "Черница", "link": "http://www.wikidata.org/entity/Q20190173"},"geometry": {"type": "Point","coordinates": [26.855555555,55.390833333]}},{"type": "Feature","properties": {"marker-color": "#000000","marker-size": "small","name": "Чернишки", "link": "http://www.wikidata.org/entity/Q20190174"},"geometry": {"type": "Point","coordinates": [27.025555555,55.713333333]}},{"type": "Feature","properties": {"marker-color": "#000000","marker-size": "small","name": "Черняны", "link": "http://www.wikidata.org/entity/Q20440077"},"geometry": {"type": "Point","coordinates": [24.215,51.983888888]}},{"type": "Feature","properties": {"marker-color": "#000000","marker-size": "small","name": "Черняны", "link": "http://www.wikidata.org/entity/Q20440077"},"geometry": {"type": "Point","coordinates": [24.212777777,51.986111111]}},{"type": "Feature","properties": {"marker-color": "#000000","marker-size": "small","name": "Чернявщина", "link": "http://www.wikidata.org/entity/Q20505172"},"geometry": {"type": "Point","coordinates": [27.986944444,55.832222222]}},{"type": "Feature","properties": {"marker-color": "#000000","marker-size": "small","name": "Чернооки", "link": "http://www.wikidata.org/entity/Q20505206"},"geometry": {"type": "Point","coordinates": [28.4325,55.992777777]}},{"type": "Feature","properties": {"marker-color": "#000000","marker-size": "small","name": "Черные", "link": "http://www.wikidata.org/entity/Q20505720"},"geometry": {"type": "Point","coordinates": [30.239722222,55.660555555]}},{"type": "Feature","properties": {"marker-color": "#000000","marker-size": "small","name": "Черня", "link": "http://www.wikidata.org/entity/Q20506290"},"geometry": {"type": "Point","coordinates": [27.777777777,54.678055555]}},{"type": "Feature","properties": {"marker-color": "#000000","marker-size": "small","name": "Черница 1", "link": "http://www.wikidata.org/entity/Q20506316"},"geometry": {"type": "Point","coordinates": [28.198611111,54.971666666]}},{"type": "Feature","properties": {"marker-color": "#000000","marker-size": "small","name": "Черница 2", "link": "http://www.wikidata.org/entity/Q20506318"},"geometry": {"type": "Point","coordinates": [28.113611111,54.963333333]}},{"type": "Feature","properties": {"marker-color": "#000000","marker-size": "small","name": "Чернецкий Мох", "link": "http://www.wikidata.org/entity/Q20505525"},"geometry": {"type": "Point","coordinates": [30.143611111,55.009722222]}},{"type": "Feature","properties": {"marker-color": "#000000","marker-size": "small","name": "Черничка 1", "link": "http://www.wikidata.org/entity/Q20506484"},"geometry": {"type": "Point","coordinates": [28.033611111,54.960833333]}},{"type": "Feature","properties": {"marker-color": "#000000","marker-size": "small","name": "Черничка 2", "link": "http://www.wikidata.org/entity/Q20506486"},"geometry": {"type": "Point","coordinates": [28.025555555,54.967777777]}},{"type": "Feature","properties": {"marker-color": "#000000","marker-size": "small","name": "Черничка 3", "link": "http://www.wikidata.org/entity/Q20506487"},"geometry": {"type": "Point","coordinates": [28.017222222,54.9775]}},{"type": "Feature","properties": {"marker-color": "#000000","marker-size": "small","name": "Черница", "link": "http://www.wikidata.org/entity/Q20506694"},"geometry": {"type": "Point","coordinates": [28.555833333,54.775]}},{"type": "Feature","properties": {"marker-color": "#000000","marker-size": "small","name": "Черноручье", "link": "http://www.wikidata.org/entity/Q20506782"},"geometry": {"type": "Point","coordinates": [28.671944444,54.831388888]}},{"type": "Feature","properties": {"marker-color": "#000000","marker-size": "small","name": "Черницы", "link": "http://www.wikidata.org/entity/Q20510915"},"geometry": {"type": "Point","coordinates": [30.852777777,55.005277777]}},{"type": "Feature","properties": {"marker-color": "#000000","marker-size": "small","name": "Чернявцы", "link": "http://www.wikidata.org/entity/Q20514303"},"geometry": {"type": "Point","coordinates": [27.738888888,55.699722222]}},{"type": "Feature","properties": {"marker-color": "#000000","marker-size": "small","name": "Чернещина", "link": "http://www.wikidata.org/entity/Q20518538"},"geometry": {"type": "Point","coordinates": [28.721388888,55.501111111]}},{"type": "Feature","properties": {"marker-color": "#000000","marker-size": "small","name": "Черноручье 2", "link": "http://www.wikidata.org/entity/Q20520699"},"geometry": {"type": "Point","coordinates": [28.738611111,55.438055555]}},{"type": "Feature","properties": {"marker-color": "#000000","marker-size": "small","name": "Чернея", "link": "http://www.wikidata.org/entity/Q20520615"},"geometry": {"type": "Point","coordinates": [28.835277777,55.660277777]}},{"type": "Feature","properties": {"marker-color": "#000000","marker-size": "small","name": "Черноручье", "link": "http://www.wikidata.org/entity/Q20537237"},"geometry": {"type": "Point","coordinates": [29.599444444,54.505277777]}},{"type": "Feature","properties": {"marker-color": "#000000","marker-size": "small","name": "Черноручье", "link": "http://www.wikidata.org/entity/Q20537492"},"geometry": {"type": "Point","coordinates": [28.504444444,55.119722222]}},{"type": "Feature","properties": {"marker-color": "#000000","marker-size": "small","name": "Черничёнки", "link": "http://www.wikidata.org/entity/Q20537611"},"geometry": {"type": "Point","coordinates": [28.696666666,55.246666666]}},{"type": "Feature","properties": {"marker-color": "#000000","marker-size": "small","name": "Чернецкое", "link": "http://www.wikidata.org/entity/Q20537989"},"geometry": {"type": "Point","coordinates": [29.642777777,55.173055555]}},{"type": "Feature","properties": {"marker-color": "#000000","marker-size": "small","name": "Черногрязь", "link": "http://www.wikidata.org/entity/Q20538626"},"geometry": {"type": "Point","coordinates": [29.953323541,53.645314238]}},{"type": "Feature","properties": {"marker-color": "#000000","marker-size": "small","name": "Чернявка", "link": "http://www.wikidata.org/entity/Q20662060"},"geometry": {"type": "Point","coordinates": [32.313333333,53.394722222]}},{"type": "Feature","properties": {"marker-color": "#000000","marker-size": "small","name": "Черноручье", "link": "http://www.wikidata.org/entity/Q20662563"},"geometry": {"type": "Point","coordinates": [30.029444444,54.166111111]}},{"type": "Feature","properties": {"marker-color": "#000000","marker-size": "small","name": "Черноцкое", "link": "http://www.wikidata.org/entity/Q20664241"},"geometry": {"type": "Point","coordinates": [28.596944444,52.108611111]}},{"type": "Feature","properties": {"marker-color": "#000000","marker-size": "small","name": "Чернин", "link": "http://www.wikidata.org/entity/Q21590877"},"geometry": {"type": "Point","coordinates": [29.316944444,52.708333333]}},{"type": "Feature","properties": {"marker-color": "#000000","marker-size": "small","name": "Чернин", "link": "http://www.wikidata.org/entity/Q21590877"},"geometry": {"type": "Point","coordinates": [29.318611111,52.706666666]}},{"type": "Feature","properties": {"marker-color": "#000000","marker-size": "small","name": "Чернуха", "link": "http://www.wikidata.org/entity/Q21615708"},"geometry": {"type": "Point","coordinates": [23.970361111,53.773611111]}},{"type": "Feature","properties": {"marker-color": "#000000","marker-size": "small","name": "Чернушки", "link": "http://www.wikidata.org/entity/Q21615709"},"geometry": {"type": "Point","coordinates": [23.917222222,53.921333333]}},{"type": "Feature","properties": {"marker-color": "#000000","marker-size": "small","name": "Черняки", "link": "http://www.wikidata.org/entity/Q21628801"},"geometry": {"type": "Point","coordinates": [24.793055555,53.501388888]}},{"type": "Feature","properties": {"marker-color": "#000000","marker-size": "small","name": "Чернели", "link": "http://www.wikidata.org/entity/Q21624058"},"geometry": {"type": "Point","coordinates": [25.883333333,54.078888888]}},{"type": "Feature","properties": {"marker-color": "#000000","marker-size": "small","name": "Новое Чернево", "link": "http://www.wikidata.org/entity/Q21648118"},"geometry": {"type": "Point","coordinates": [27.770555555,54.337222222]}},{"type": "Feature","properties": {"marker-color": "#000000","marker-size": "small","name": "Старое Чернево", "link": "http://www.wikidata.org/entity/Q21648127"},"geometry": {"type": "Point","coordinates": [27.765277777,54.345833333]}},{"type": "Feature","properties": {"marker-color": "#000000","marker-size": "small","name": "Черневичи", "link": "http://www.wikidata.org/entity/Q21631375"},"geometry": {"type": "Point","coordinates": [26.236111111,54.149722222]}},{"type": "Feature","properties": {"marker-color": "#000000","marker-size": "small","name": "Чернолески", "link": "http://www.wikidata.org/entity/Q21649039"},"geometry": {"type": "Point","coordinates": [27.475555555,53.678888888]}},{"type": "Feature","properties": {"marker-color": "#000000","marker-size": "small","name": "Черничное", "link": "http://www.wikidata.org/entity/Q21647725"},"geometry": {"type": "Point","coordinates": [27.316111111,53.290833333]}},{"type": "Feature","properties": {"marker-color": "#000000","marker-size": "small","name": "Черногубово", "link": "http://www.wikidata.org/entity/Q21647732"},"geometry": {"type": "Point","coordinates": [27.044722222,53.083055555]}},{"type": "Feature","properties": {"marker-color": "#000000","marker-size": "small","name": "Черница", "link": "http://www.wikidata.org/entity/Q21648019"},"geometry": {"type": "Point","coordinates": [28.031388888,54.4725]}},{"type": "Feature","properties": {"marker-color": "#000000","marker-size": "small","name": "Чернёво", "link": "http://www.wikidata.org/entity/Q21657447"},"geometry": {"type": "Point","coordinates": [23.464444444,52.370277777]}},{"type": "Feature","properties": {"marker-color": "#000000","marker-size": "small","name": "Чернавчицы", "link": "http://www.wikidata.org/entity/Q377440"},"geometry": {"type": "Point","coordinates": [23.741388888,52.211666666]}},{"type": "Feature","properties": {"marker-color": "#000000","marker-size": "small","name": "Черниковщина", "link": "http://www.wikidata.org/entity/Q6547525"},"geometry": {"type": "Point","coordinates": [27.184444444,53.74]}},{"type": "Feature","properties": {"marker-color": "#000000","marker-size": "small","name": "Черниковщина", "link": "http://www.wikidata.org/entity/Q6547525"},"geometry": {"type": "Point","coordinates": [27.203111111,53.7375]}},{"type": "Feature","properties": {"marker-color": "#000000","marker-size": "small","name": "Черневка", "link": "http://www.wikidata.org/entity/Q16717867"},"geometry": {"type": "Point","coordinates": [30.7703,54.0878]}},{"type": "Feature","properties": {"marker-color": "#000000","marker-size": "small","name": "Черноградь", "link": "http://www.wikidata.org/entity/Q21650966"},"geometry": {"type": "Point","coordinates": [28.219722222,53.785277777]}},{"type": "Feature","properties": {"marker-color": "#000000","marker-size": "small","name": "Черноградь", "link": "http://www.wikidata.org/entity/Q21650966"},"geometry": {"type": "Point","coordinates": [28.22055556,53.785]}},{"type": "Feature","properties": {"marker-color": "#000000","marker-size": "small","name": "Черняты (Гродненская область)", "link": "http://www.wikidata.org/entity/Q13662828"},"geometry": {"type": "Point","coordinates": [26.487777777,54.534722222]}},{"type": "Feature","properties": {"marker-color": "#000000","marker-size": "small","name": "Черняты (Гродненская область)", "link": "http://www.wikidata.org/entity/Q13662828"},"geometry": {"type": "Point","coordinates": [26.488333333,54.535]}},{"type": "Feature","properties": {"marker-color": "#000000","marker-size": "small","name": "Черница", "link": "http://www.wikidata.org/entity/Q16723239"},"geometry": {"type": "Point","coordinates": [28.09444444,53.9825]}},{"type": "Feature","properties": {"marker-color": "#000000","marker-size": "small","name": "Чернилово", "link": "http://www.wikidata.org/entity/Q20514302"},"geometry": {"type": "Point","coordinates": [27.658888888,55.718888888]}},{"type": "Feature","properties": {"marker-color": "#000000","marker-size": "small","name": "Верхнее Чернихово", "link": "http://www.wikidata.org/entity/Q6474861"},"geometry": {"type": "Point","coordinates": [26.232972222,53.246777777]}},{"type": "Feature","properties": {"marker-color": "#000000","marker-size": "small","name": "Чернявские Малыничи", "link": "http://www.wikidata.org/entity/Q4514411"},"geometry": {"type": "Point","coordinates": [30.9,52.833333333]}},{"type": "Feature","properties": {"marker-color": "#000000","marker-size": "small","name": "Чернятин (Морозовичский сельсовет)", "link": "http://www.wikidata.org/entity/Q4514520"},"geometry": {"type": "Point","coordinates": [30.496388888,52.644166666]}},{"type": "Feature","properties": {"marker-color": "#000000","marker-size": "small","name": "Чернятин (Широковский сельсовет)", "link": "http://www.wikidata.org/entity/Q4514523"},"geometry": {"type": "Point","coordinates": [30.910555555,52.681666666]}},{"type": "Feature","properties": {"marker-color": "#000000","marker-size": "small","name": "Черняцкая Поляна", "link": "http://www.wikidata.org/entity/Q4514553"},"geometry": {"type": "Point","coordinates": [30.918055555,52.695833333]}},{"type": "Feature","properties": {"marker-color": "#000000","marker-size": "small","name": "Черневичи", "link": "http://www.wikidata.org/entity/Q6546491"},"geometry": {"type": "Point","coordinates": [25.772777777,53.379444444]}},{"type": "Feature","properties": {"marker-color": "#000000","marker-size": "small","name": "Черницкий", "link": "http://www.wikidata.org/entity/Q6546648"},"geometry": {"type": "Point","coordinates": [28.24472237,54.00611115]}},{"type": "Feature","properties": {"marker-color": "#000000","marker-size": "small","name": "Черницкий", "link": "http://www.wikidata.org/entity/Q6546648"},"geometry": {"type": "Point","coordinates": [28.245,54.0075]}},{"type": "Feature","properties": {"marker-color": "#000000","marker-size": "small","name": "Чернышин", "link": "http://www.wikidata.org/entity/Q20662286"},"geometry": {"type": "Point","coordinates": [31.270833333,53.733333333]}},{"type": "Feature","properties": {"marker-color": "#000000","marker-size": "small","name": "Черничный", "link": "http://www.wikidata.org/entity/Q20577009"},"geometry": {"type": "Point","coordinates": [30.8642,54.3453]}},{"type": "Feature","properties": {"marker-color": "#000000","marker-size": "small","name": "Черняховский", "link": "http://www.wikidata.org/entity/Q21648178"},"geometry": {"type": "Point","coordinates": [27.939722222,54.114444444]}},{"type": "Feature","properties": {"marker-color": "#000000","marker-size": "small","name": "Залесье (Чернинский сельсовет)", "link": "http://www.wikidata.org/entity/Q13133369"},"geometry": {"type": "Point","coordinates": [23.8725,52.173055555]}},{"type": "Feature","properties": {"marker-color": "#000000","marker-size": "small","name": "Черняты", "link": "http://www.wikidata.org/entity/Q13134296"},"geometry": {"type": "Point","coordinates": [26.88277778,54.00222222]}},{"type": "Feature","properties": {"marker-color": "#000000","marker-size": "small","name": "Черняты", "link": "http://www.wikidata.org/entity/Q13134296"},"geometry": {"type": "Point","coordinates": [26.884444444,55.006111111]}},{"type": "Feature","properties": {"marker-color": "#000000","marker-size": "small","name": "Чернеевичи", "link": "http://www.wikidata.org/entity/Q13134297"},"geometry": {"type": "Point","coordinates": [25.143,52.359555555]}},{"type": "Feature","properties": {"marker-color": "#000000","marker-size": "small","name": "Чернавцы", "link": "http://www.wikidata.org/entity/Q13662031"},"geometry": {"type": "Point","coordinates": [30.957410433,53.930395212]}},{"type": "Feature","properties": {"marker-color": "#000000","marker-size": "small","name": "Черногрязь", "link": "http://www.wikidata.org/entity/Q20538626"},"geometry": {"type": "Point","coordinates": [29.953323541,53.645314238]}},{"type": "Feature","properties": {"marker-color": "#000000","marker-size": "small","name": "Черноцкое", "link": "http://www.wikidata.org/entity/Q20664241"},"geometry": {"type": "Point","coordinates": [28.596944444,52.108611111]}},{"type": "Feature","properties": {"marker-color": "#000000","marker-size": "small","name": "Черни", "link": "http://www.wikidata.org/entity/Q735934"},"geometry": {"type": "Point","coordinates": [23.756666666,52.152222222]}},{"type": "Feature","properties": {"marker-color": "#000000","marker-size": "small","name": "Чернозёмовка (сельский населённый пункт)", "link": "http://www.wikidata.org/entity/Q4513988"},"geometry": {"type": "Point","coordinates": [30.2102,53.7948]}},{"type": "Feature","properties": {"marker-color": "#000000","marker-size": "small","name": "Чернявка (Октябрьский район)", "link": "http://www.wikidata.org/entity/Q4514397"},"geometry": {"type": "Point","coordinates": [29.278333333,52.633333333]}},{"type": "Feature","properties": {"marker-color": "#000000","marker-size": "small","name": "Черницкий", "link": "http://www.wikidata.org/entity/Q6546648"},"geometry": {"type": "Point","coordinates": [28.24472237,54.00611115]}},{"type": "Feature","properties": {"marker-color": "#000000","marker-size": "small","name": "Черницкий", "link": "http://www.wikidata.org/entity/Q6546648"},"geometry": {"type": "Point","coordinates": [28.245,54.0075]}},{"type": "Feature","properties": {"marker-color": "#000000","marker-size": "small","name": "Чернево", "link": "http://www.wikidata.org/entity/Q16723202"},"geometry": {"type": "Point","coordinates": [26.85805556,54.10805556]}},{"type": "Feature","properties": {"marker-color": "#000000","marker-size": "small","name": "Черниковщина", "link": "http://www.wikidata.org/entity/Q16723231"},"geometry": {"type": "Point","coordinates": [28.07638889,53.99722222]}},{"type": "Feature","properties": {"marker-color": "#000000","marker-size": "small","name": "Черниковщина", "link": "http://www.wikidata.org/entity/Q16723231"},"geometry": {"type": "Point","coordinates": [28.080555555,53.995277777]}},{"type": "Feature","properties": {"marker-color": "#000000","marker-size": "small","name": "Черница", "link": "http://www.wikidata.org/entity/Q16723237"},"geometry": {"type": "Point","coordinates": [28.13166667,54.0]}},{"type": "Feature","properties": {"marker-color": "#000000","marker-size": "small","name": "Черница", "link": "http://www.wikidata.org/entity/Q16723239"},"geometry": {"type": "Point","coordinates": [28.09444444,53.9825]}},{"type": "Feature","properties": {"marker-color": "#000000","marker-size": "small","name": "Чернова", "link": "http://www.wikidata.org/entity/Q16723253"},"geometry": {"type": "Point","coordinates": [28.339444444,53.860833333]}},{"type": "Feature","properties": {"marker-color": "#000000","marker-size": "small","name": "Чернова", "link": "http://www.wikidata.org/entity/Q16723253"},"geometry": {"type": "Point","coordinates": [28.3375,53.86194444]}},{"type": "Feature","properties": {"marker-color": "#000000","marker-size": "small","name": "Черневщина", "link": "http://www.wikidata.org/entity/Q16723291"},"geometry": {"type": "Point","coordinates": [26.863055555,54.120277777]}},{"type": "Feature","properties": {"marker-color": "#000000","marker-size": "small","name": "Черневщина", "link": "http://www.wikidata.org/entity/Q16723291"},"geometry": {"type": "Point","coordinates": [26.86361111,54.12055556]}},{"type": "Feature","properties": {"marker-color": "#000000","marker-size": "small","name": "Черноградь", "link": "http://www.wikidata.org/entity/Q21650966"},"geometry": {"type": "Point","coordinates": [28.219722222,53.785277777]}},{"type": "Feature","properties": {"marker-color": "#000000","marker-size": "small","name": "Черноградь", "link": "http://www.wikidata.org/entity/Q21650966"},"geometry": {"type": "Point","coordinates": [28.22055556,53.785]}},{"type": "Feature","properties": {"marker-color": "#000000","marker-size": "small","name": "Schwarzenberg", "link": "http://www.wikidata.org/entity/Q14576"},"geometry": {"type": "Point","coordinates": [8.173333333,47.014166666]}},{"type": "Feature","properties": {"marker-color": "#000000","marker-size": "small","name": "Kaltenherberg (Schwarzwald)", "link": "http://www.wikidata.org/entity/Q1722674"},"geometry": {"type": "Point","coordinates": [8.196042,47.999977]}},{"type": "Feature","properties": {"marker-color": "#000000","marker-size": "small","name": "Schwarzhäusern", "link": "http://www.wikidata.org/entity/Q67623"},"geometry": {"type": "Point","coordinates": [7.766666666,47.253888888]}},{"type": "Feature","properties": {"marker-color": "#000000","marker-size": "small","name": "Schwarzenbach", "link": "http://www.wikidata.org/entity/Q15846816"},"geometry": {"type": "Point","coordinates": [8.2115,47.2319]}},{"type": "Feature","properties": {"marker-color": "#000000","marker-size": "small","name": "Schwarzfeldsiedlung (Königheim)", "link": "http://www.wikidata.org/entity/Q45207630"},"geometry": {"type": "Point","coordinates": [9.599128,49.573542]}},{"type": "Feature","properties": {"marker-color": "#000000","marker-size": "small","name": "Schwarzenburg", "link": "http://www.wikidata.org/entity/Q70708"},"geometry": {"type": "Point","coordinates": [7.333333333,46.816666666]}},{"type": "Feature","properties": {"marker-color": "#000000","marker-size": "small","name": "Schwarz", "link": "http://www.wikidata.org/entity/Q20267"},"geometry": {"type": "Point","coordinates": [12.783055555,53.219722222]}},{"type": "Feature","properties": {"marker-color": "#000000","marker-size": "small","name": "Schönwald im Schwarzwald", "link": "http://www.wikidata.org/entity/Q82920"},"geometry": {"type": "Point","coordinates": [8.202777777,48.104722222]}},{"type": "Feature","properties": {"marker-color": "#000000","marker-size": "small","name": "St. Georgen im Schwarzwald", "link": "http://www.wikidata.org/entity/Q83036"},"geometry": {"type": "Point","coordinates": [8.330833333,48.124722222]}},{"type": "Feature","properties": {"marker-color": "#000000","marker-size": "small","name": "Münstertal/Schwarzwald", "link": "http://www.wikidata.org/entity/Q274990"},"geometry": {"type": "Point","coordinates": [7.784166666,47.854722222]}},{"type": "Feature","properties": {"marker-color": "#000000","marker-size": "small","name": "Münstertal/Schwarzwald", "link": "http://www.wikidata.org/entity/Q274990"},"geometry": {"type": "Point","coordinates": [7.78417,47.85472]}},{"type": "Feature","properties": {"marker-color": "#000000","marker-size": "small","name": "Triberg im Schwarzwald", "link": "http://www.wikidata.org/entity/Q83271"},"geometry": {"type": "Point","coordinates": [8.231666666,48.130833333]}},{"type": "Feature","properties": {"marker-color": "#000000","marker-size": "small","name": "Lahr/Schwarzwald", "link": "http://www.wikidata.org/entity/Q7039"},"geometry": {"type": "Point","coordinates": [7.872222222,48.339166666]}},{"type": "Feature","properties": {"marker-color": "#000000","marker-size": "small","name": "Eisenbach (Hochschwarzwald)", "link": "http://www.wikidata.org/entity/Q117878"},"geometry": {"type": "Point","coordinates": [8.271944444,47.963888888]}},{"type": "Feature","properties": {"marker-color": "#000000","marker-size": "small","name": "Königsfeld im Schwarzwald", "link": "http://www.wikidata.org/entity/Q81421"},"geometry": {"type": "Point","coordinates": [8.41973,48.13814]}},{"type": "Feature","properties": {"marker-color": "#000000","marker-size": "small","name": "Königsfeld im Schwarzwald", "link": "http://www.wikidata.org/entity/Q81421"},"geometry": {"type": "Point","coordinates": [8.421388888,48.138333333]}},{"type": "Feature","properties": {"marker-color": "#000000","marker-size": "small","name": "Schönau im Schwarzwald", "link": "http://www.wikidata.org/entity/Q61731"},"geometry": {"type": "Point","coordinates": [7.894166666,47.786666666]}},{"type": "Feature","properties": {"marker-color": "#000000","marker-size": "small","name": "Schwarzenbach am Wald", "link": "http://www.wikidata.org/entity/Q502392"},"geometry": {"type": "Point","coordinates": [11.620833333,50.283333333]}},{"type": "Feature","properties": {"marker-color": "#000000","marker-size": "small","name": "Schonach im Schwarzwald", "link": "http://www.wikidata.org/entity/Q81817"},"geometry": {"type": "Point","coordinates": [8.2025,48.142777777]}},{"type": "Feature","properties": {"marker-color": "#000000","marker-size": "small","name": "Bonndorf im Schwarzwald", "link": "http://www.wikidata.org/entity/Q178703"},"geometry": {"type": "Point","coordinates": [8.343055555,47.819444444]}},{"type": "Feature","properties": {"marker-color": "#000000","marker-size": "small","name": "Furtwangen im Schwarzwald", "link": "http://www.wikidata.org/entity/Q82717"},"geometry": {"type": "Point","coordinates": [8.209166666,48.050277777]}},{"type": "Feature","properties": {"marker-color": "#000000","marker-size": "small","name": "Schwarzach", "link": "http://www.wikidata.org/entity/Q552185"},"geometry": {"type": "Point","coordinates": [8.983055555,49.373055555]}},{"type": "Feature","properties": {"marker-color": "#000000","marker-size": "small","name": "Feldberg (Schwarzwald)", "link": "http://www.wikidata.org/entity/Q533871"},"geometry": {"type": "Point","coordinates": [8.111666666,47.856111111]}},{"type": "Feature","properties": {"marker-color": "#000000","marker-size": "small","name": "Schwarzach am Main", "link": "http://www.wikidata.org/entity/Q503334"},"geometry": {"type": "Point","coordinates": [10.233333333,49.8]}},{"type": "Feature","properties": {"marker-color": "#000000","marker-size": "small","name": "Schwarzenbach an der Saale", "link": "http://www.wikidata.org/entity/Q503422"},"geometry": {"type": "Point","coordinates": [11.933333333,50.220833333]}},{"type": "Feature","properties": {"marker-color": "#000000","marker-size": "small","name": "Schwarzenbach an der Saale", "link": "http://www.wikidata.org/entity/Q503422"},"geometry": {"type": "Point","coordinates": [11.93504,50.22279]}},{"type": "Feature","properties": {"marker-color": "#000000","marker-size": "small","name": "Ottenhöfen im Schwarzwald", "link": "http://www.wikidata.org/entity/Q533667"},"geometry": {"type": "Point","coordinates": [8.150555555,48.5675]}},{"type": "Feature","properties": {"marker-color": "#000000","marker-size": "small","name": "Schwarzbach", "link": "http://www.wikidata.org/entity/Q554832"},"geometry": {"type": "Point","coordinates": [11.883333333,50.8]}},{"type": "Feature","properties": {"marker-color": "#000000","marker-size": "small","name": "Gutach (Schwarzwaldbahn)", "link": "http://www.wikidata.org/entity/Q557834"},"geometry": {"type": "Point","coordinates": [8.211666666,48.248611111]}},{"type": "Feature","properties": {"marker-color": "#000000","marker-size": "small","name": "Bernau im Schwarzwald", "link": "http://www.wikidata.org/entity/Q537241"},"geometry": {"type": "Point","coordinates": [8.036388888,47.801111111]}},{"type": "Feature","properties": {"marker-color": "#000000","marker-size": "small","name": "Schwarzenbruck", "link": "http://www.wikidata.org/entity/Q508456"},"geometry": {"type": "Point","coordinates": [11.233333333,49.35]}},{"type": "Feature","properties": {"marker-color": "#000000","marker-size": "small","name": "Schwarzenbach", "link": "http://www.wikidata.org/entity/Q508698"},"geometry": {"type": "Point","coordinates": [12.0,49.733333333]}},{"type": "Feature","properties": {"marker-color": "#000000","marker-size": "small","name": "Schwarzburg", "link": "http://www.wikidata.org/entity/Q539200"},"geometry": {"type": "Point","coordinates": [11.196944444,50.640833333]}},{"type": "Feature","properties": {"marker-color": "#000000","marker-size": "small","name": "Oberschwarzach", "link": "http://www.wikidata.org/entity/Q558942"},"geometry": {"type": "Point","coordinates": [10.416666666,49.866666666]}},{"type": "Feature","properties": {"marker-color": "#000000","marker-size": "small","name": "Schwarzhofen", "link": "http://www.wikidata.org/entity/Q559101"},"geometry": {"type": "Point","coordinates": [12.35,49.383333333]}},{"type": "Feature","properties": {"marker-color": "#000000","marker-size": "small","name": "Schwarzach bei Nabburg", "link": "http://www.wikidata.org/entity/Q546420"},"geometry": {"type": "Point","coordinates": [12.233333333,49.4]}},{"type": "Feature","properties": {"marker-color": "#000000","marker-size": "small","name": "Schwarzach bei Nabburg", "link": "http://www.wikidata.org/entity/Q546420"},"geometry": {"type": "Point","coordinates": [12.22864,49.41064]}},{"type": "Feature","properties": {"marker-color": "#000000","marker-size": "small","name": "Schwarzbach", "link": "http://www.wikidata.org/entity/Q623909"},"geometry": {"type": "Point","coordinates": [13.933055555,51.45]}},{"type": "Feature","properties": {"marker-color": "#000000","marker-size": "small","name": "Schwarzenborn", "link": "http://www.wikidata.org/entity/Q624331"},"geometry": {"type": "Point","coordinates": [9.433333333,50.916666666]}},{"type": "Feature","properties": {"marker-color": "#000000","marker-size": "small","name": "Schwarzen", "link": "http://www.wikidata.org/entity/Q641532"},"geometry": {"type": "Point","coordinates": [7.331111111,49.961944444]}},{"type": "Feature","properties": {"marker-color": "#000000","marker-size": "small","name": "Schwarzenbek", "link": "http://www.wikidata.org/entity/Q569643"},"geometry": {"type": "Point","coordinates": [10.479166666,53.504166666]}},{"type": "Feature","properties": {"marker-color": "#000000","marker-size": "small","name": "Schwarzenfeld", "link": "http://www.wikidata.org/entity/Q566553"},"geometry": {"type": "Point","coordinates": [12.133333333,49.383333333]}},{"type": "Feature","properties": {"marker-color": "#000000","marker-size": "small","name": "Schwarzach", "link": "http://www.wikidata.org/entity/Q581023"},"geometry": {"type": "Point","coordinates": [12.816666666,48.916666666]}},{"type": "Feature","properties": {"marker-color": "#000000","marker-size": "small","name": "Meuselbach-Schwarzmühle", "link": "http://www.wikidata.org/entity/Q602626"},"geometry": {"type": "Point","coordinates": [11.089444444,50.57]}},{"type": "Feature","properties": {"marker-color": "#000000","marker-size": "small","name": "Schwarzheide", "link": "http://www.wikidata.org/entity/Q584474"},"geometry": {"type": "Point","coordinates": [13.866666666,51.483055555]}},{"type": "Feature","properties": {"marker-color": "#000000","marker-size": "small","name": "Schwarzerden", "link": "http://www.wikidata.org/entity/Q630040"},"geometry": {"type": "Point","coordinates": [7.513055555,49.861944444]}},{"type": "Feature","properties": {"marker-color": "#000000","marker-size": "small","name": "Schwarzenborn", "link": "http://www.wikidata.org/entity/Q654601"},"geometry": {"type": "Point","coordinates": [6.711388888,50.038888888]}},{"type": "Feature","properties": {"marker-color": "#000000","marker-size": "small","name": "Schwarza", "link": "http://www.wikidata.org/entity/Q694912"},"geometry": {"type": "Point","coordinates": [10.533333333,50.620833333]}},{"type": "Feature","properties": {"marker-color": "#000000","marker-size": "small","name": "Brigach (St. Georgen im Schwarzwald)", "link": "http://www.wikidata.org/entity/Q915286"},"geometry": {"type": "Point","coordinates": [8.3089,48.114]}},{"type": "Feature","properties": {"marker-color": "#000000","marker-size": "small","name": "Schwarzenbach", "link": "http://www.wikidata.org/entity/Q2253793"},"geometry": {"type": "Point","coordinates": [11.3445,49.3531]}},{"type": "Feature","properties": {"marker-color": "#000000","marker-size": "small","name": "Schwarzenau", "link": "http://www.wikidata.org/entity/Q675998"},"geometry": {"type": "Point","coordinates": [15.25,48.733333333]}},{"type": "Feature","properties": {"marker-color": "#000000","marker-size": "small","name": "Schwarzenbach", "link": "http://www.wikidata.org/entity/Q22558"},"geometry": {"type": "Point","coordinates": [7.32389,49.2983]}},{"type": "Feature","properties": {"marker-color": "#000000","marker-size": "small","name": "Schwarzach im Pongau", "link": "http://www.wikidata.org/entity/Q253179"},"geometry": {"type": "Point","coordinates": [13.15,47.322222222]}},{"type": "Feature","properties": {"marker-color": "#000000","marker-size": "small","name": "Schwarzenacker", "link": "http://www.wikidata.org/entity/Q22834"},"geometry": {"type": "Point","coordinates": [7.32194,49.2892]}},{"type": "Feature","properties": {"marker-color": "#000000","marker-size": "small","name": "Schwarzkollm", "link": "http://www.wikidata.org/entity/Q160230"},"geometry": {"type": "Point","coordinates": [14.133333333,51.433333333]}},{"type": "Feature","properties": {"marker-color": "#000000","marker-size": "small","name": "Wolfsberg im Schwarzautal", "link": "http://www.wikidata.org/entity/Q427763"},"geometry": {"type": "Point","coordinates": [15.66,46.845833333]}},{"type": "Feature","properties": {"marker-color": "#000000","marker-size": "small","name": "Wimpassing im Schwarzatale", "link": "http://www.wikidata.org/entity/Q604829"},"geometry": {"type": "Point","coordinates": [16.016666666,47.7]}},{"type": "Feature","properties": {"marker-color": "#000000","marker-size": "small","name": "Schwarzenbach", "link": "http://www.wikidata.org/entity/Q661682"},"geometry": {"type": "Point","coordinates": [16.35,47.633333333]}},{"type": "Feature","properties": {"marker-color": "#000000","marker-size": "small","name": "Schwarzach am Main", "link": "http://www.wikidata.org/entity/Q503334"},"geometry": {"type": "Point","coordinates": [10.233333333,49.8]}},{"type": "Feature","properties": {"marker-color": "#000000","marker-size": "small","name": "Schwarzenhasel", "link": "http://www.wikidata.org/entity/Q252597"},"geometry": {"type": "Point","coordinates": [9.77028,51.0217]}},{"type": "Feature","properties": {"marker-color": "#000000","marker-size": "small","name": "Bad Griesbach im Schwarzwald", "link": "http://www.wikidata.org/entity/Q798693"},"geometry": {"type": "Point","coordinates": [8.2383,48.4514]}},{"type": "Feature","properties": {"marker-color": "#000000","marker-size": "small","name": "Schwarzrheindorf/Vilich-Rheindorf", "link": "http://www.wikidata.org/entity/Q317111"},"geometry": {"type": "Point","coordinates": [7.119722222,50.747777777]}},{"type": "Feature","properties": {"marker-color": "#000000","marker-size": "small","name": "Schwarzholz", "link": "http://www.wikidata.org/entity/Q700684"},"geometry": {"type": "Point","coordinates": [11.983055555,52.75]}},{"type": "Feature","properties": {"marker-color": "#000000","marker-size": "small","name": "Schwarzach im Pongau", "link": "http://www.wikidata.org/entity/Q253179"},"geometry": {"type": "Point","coordinates": [13.15,47.322222222]}},{"type": "Feature","properties": {"marker-color": "#000000","marker-size": "small","name": "Schwarzau im Gebirge", "link": "http://www.wikidata.org/entity/Q670297"},"geometry": {"type": "Point","coordinates": [15.7,47.8]}},{"type": "Feature","properties": {"marker-color": "#000000","marker-size": "small","name": "Wolfsberg im Schwarzautal", "link": "http://www.wikidata.org/entity/Q427763"},"geometry": {"type": "Point","coordinates": [15.66,46.845833333]}},{"type": "Feature","properties": {"marker-color": "#000000","marker-size": "small","name": "Schwarzenau", "link": "http://www.wikidata.org/entity/Q675998"},"geometry": {"type": "Point","coordinates": [15.25,48.733333333]}},{"type": "Feature","properties": {"marker-color": "#000000","marker-size": "small","name": "Schwarzenbach", "link": "http://www.wikidata.org/entity/Q661682"},"geometry": {"type": "Point","coordinates": [16.35,47.633333333]}},{"type": "Feature","properties": {"marker-color": "#000000","marker-size": "small","name": "Schwarzau am Steinfeld", "link": "http://www.wikidata.org/entity/Q666003"},"geometry": {"type": "Point","coordinates": [16.166666666,47.716666666]}},{"type": "Feature","properties": {"marker-color": "#000000","marker-size": "small","name": "Wimpassing im Schwarzatale", "link": "http://www.wikidata.org/entity/Q604829"},"geometry": {"type": "Point","coordinates": [16.016666666,47.7]}},{"type": "Feature","properties": {"marker-color": "#000000","marker-size": "small","name": "Brigach (St. Georgen im Schwarzwald)", "link": "http://www.wikidata.org/entity/Q915286"},"geometry": {"type": "Point","coordinates": [8.3089,48.114]}},{"type": "Feature","properties": {"marker-color": "#000000","marker-size": "small","name": "Schwarzenau", "link": "http://www.wikidata.org/entity/Q675998"},"geometry": {"type": "Point","coordinates": [15.25,48.733333333]}},{"type": "Feature","properties": {"marker-color": "#000000","marker-size": "small","name": "Hainsdorf im Schwarzautal", "link": "http://www.wikidata.org/entity/Q688079"},"geometry": {"type": "Point","coordinates": [15.638055555,46.833611111]}},{"type": "Feature","properties": {"marker-color": "#000000","marker-size": "small","name": "Schwarzau im Schwarzautal", "link": "http://www.wikidata.org/entity/Q693422"},"geometry": {"type": "Point","coordinates": [15.6647,46.8762]}},{"type": "Feature","properties": {"marker-color": "#000000","marker-size": "small","name": "Schwarzenbach an der Pielach", "link": "http://www.wikidata.org/entity/Q674386"},"geometry": {"type": "Point","coordinates": [15.383333333,47.933333333]}},{"type": "Feature","properties": {"marker-color": "#000000","marker-size": "small","name": "Schwarzau im Gebirge", "link": "http://www.wikidata.org/entity/Q670297"},"geometry": {"type": "Point","coordinates": [15.7,47.8]}},{"type": "Feature","properties": {"marker-color": "#000000","marker-size": "small","name": "Schwarzach", "link": "http://www.wikidata.org/entity/Q701709"},"geometry": {"type": "Point","coordinates": [9.763055555,47.444722222]}},{"type": "Feature","properties": {"marker-color": "#000000","marker-size": "small","name": "Schwarzautal", "link": "http://www.wikidata.org/entity/Q17591850"},"geometry": {"type": "Point","coordinates": [15.68,46.83]}},{"type": "Feature","properties": {"marker-color": "#000000","marker-size": "small","name": "Langenschwarz", "link": "http://www.wikidata.org/entity/Q1121817"},"geometry": {"type": "Point","coordinates": [9.63056,50.7178]}},{"type": "Feature","properties": {"marker-color": "#000000","marker-size": "small","name": "Schwarzenberg am Böhmerwald", "link": "http://www.wikidata.org/entity/Q693714"},"geometry": {"type": "Point","coordinates": [13.833333333,48.731944444]}},{"type": "Feature","properties": {"marker-color": "#000000","marker-size": "small","name": "Kohlschwarz", "link": "http://www.wikidata.org/entity/Q695362"},"geometry": {"type": "Point","coordinates": [15.120277777,47.108611111]}},{"type": "Feature","properties": {"marker-color": "#000000","marker-size": "small","name": "Schwarzenberg", "link": "http://www.wikidata.org/entity/Q695371"},"geometry": {"type": "Point","coordinates": [9.853055555,47.413333333]}},{"type": "Feature","properties": {"marker-color": "#000000","marker-size": "small","name": "Schwarzenmühle", "link": "http://www.wikidata.org/entity/Q1241974"},"geometry": {"type": "Point","coordinates": [10.1592,49.3992]}},{"type": "Feature","properties": {"marker-color": "#000000","marker-size": "small","name": "Schwarze Pumpe", "link": "http://www.wikidata.org/entity/Q1376457"},"geometry": {"type": "Point","coordinates": [14.33277778,51.52111111]}},{"type": "Feature","properties": {"marker-color": "#000000","marker-size": "small","name": "Schwarzenbach", "link": "http://www.wikidata.org/entity/Q1285787"},"geometry": {"type": "Point","coordinates": [7.01889,49.5964]}},{"type": "Feature","properties": {"marker-color": "#000000","marker-size": "small","name": "Schwarzerden", "link": "http://www.wikidata.org/entity/Q1393063"},"geometry": {"type": "Point","coordinates": [7.28417,49.5339]}},{"type": "Feature","properties": {"marker-color": "#000000","marker-size": "small","name": "Schwarzpaul", "link": "http://www.wikidata.org/entity/Q1560526"},"geometry": {"type": "Point","coordinates": [7.75889,51.3203]}},{"type": "Feature","properties": {"marker-color": "#000000","marker-size": "small","name": "Großschwarzenlohe", "link": "http://www.wikidata.org/entity/Q1485573"},"geometry": {"type": "Point","coordinates": [11.1131,49.3397]}},{"type": "Feature","properties": {"marker-color": "#000000","marker-size": "small","name": "Grebenhagen (Schwarzenborn)", "link": "http://www.wikidata.org/entity/Q1544472"},"geometry": {"type": "Point","coordinates": [9.47917,50.9164]}},{"type": "Feature","properties": {"marker-color": "#000000","marker-size": "small","name": "Oberbarmen-Schwarzbach", "link": "http://www.wikidata.org/entity/Q1508869"},"geometry": {"type": "Point","coordinates": [7.21278,51.2803]}},{"type": "Feature","properties": {"marker-color": "#000000","marker-size": "small","name": "Schwarzbach", "link": "http://www.wikidata.org/entity/Q1669891"},"geometry": {"type": "Point","coordinates": [12.927,47.7634]}},{"type": "Feature","properties": {"marker-color": "#000000","marker-size": "small","name": "Kaltenherberg (Schwarzwald)", "link": "http://www.wikidata.org/entity/Q1722674"},"geometry": {"type": "Point","coordinates": [8.196042,47.999977]}},{"type": "Feature","properties": {"marker-color": "#000000","marker-size": "small","name": "Schwarzenmoor", "link": "http://www.wikidata.org/entity/Q1687932"},"geometry": {"type": "Point","coordinates": [8.733333333,52.138888888]}},{"type": "Feature","properties": {"marker-color": "#000000","marker-size": "small","name": "Schwarzbach", "link": "http://www.wikidata.org/entity/Q1710582"},"geometry": {"type": "Point","coordinates": [12.8658,50.5619]}},{"type": "Feature","properties": {"marker-color": "#000000","marker-size": "small","name": "Schwarza", "link": "http://www.wikidata.org/entity/Q1750191"},"geometry": {"type": "Point","coordinates": [11.3239,50.8525]}},{"type": "Feature","properties": {"marker-color": "#000000","marker-size": "small","name": "Schwarz", "link": "http://www.wikidata.org/entity/Q1750853"},"geometry": {"type": "Point","coordinates": [9.42082,50.7209]}},{"type": "Feature","properties": {"marker-color": "#000000","marker-size": "small","name": "Schwarzenburg", "link": "http://www.wikidata.org/entity/Q1719065"},"geometry": {"type": "Point","coordinates": [13.5535,51.7502]}},{"type": "Feature","properties": {"marker-color": "#000000","marker-size": "small","name": "Kleinschwarzenbach", "link": "http://www.wikidata.org/entity/Q1747030"},"geometry": {"type": "Point","coordinates": [11.7058,50.2469]}},{"type": "Feature","properties": {"marker-color": "#000000","marker-size": "small","name": "Schwarzenberg", "link": "http://www.wikidata.org/entity/Q1756852"},"geometry": {"type": "Point","coordinates": [9.56333,51.1481]}},{"type": "Feature","properties": {"marker-color": "#000000","marker-size": "small","name": "Mittelschwarzen", "link": "http://www.wikidata.org/entity/Q1940375"},"geometry": {"type": "Point","coordinates": [7.34389,51.0869]}},{"type": "Feature","properties": {"marker-color": "#000000","marker-size": "small","name": "Schwarzenau", "link": "http://www.wikidata.org/entity/Q2137878"},"geometry": {"type": "Point","coordinates": [8.47528,51.0242]}},{"type": "Feature","properties": {"marker-color": "#000000","marker-size": "small","name": "Oberschwarzen", "link": "http://www.wikidata.org/entity/Q2010911"},"geometry": {"type": "Point","coordinates": [7.34861,51.0883]}},{"type": "Feature","properties": {"marker-color": "#000000","marker-size": "small","name": "Unter-Schwarz", "link": "http://www.wikidata.org/entity/Q2497012"},"geometry": {"type": "Point","coordinates": [9.58722,50.7422]}},{"type": "Feature","properties": {"marker-color": "#000000","marker-size": "small","name": "Schwarzeck", "link": "http://www.wikidata.org/entity/Q2253774"},"geometry": {"type": "Point","coordinates": [12.9,47.625]}},{"type": "Feature","properties": {"marker-color": "#000000","marker-size": "small","name": "Schwarzenbach", "link": "http://www.wikidata.org/entity/Q2253793"},"geometry": {"type": "Point","coordinates": [11.3445,49.3531]}},{"type": "Feature","properties": {"marker-color": "#000000","marker-size": "small","name": "Schwarzenbach", "link": "http://www.wikidata.org/entity/Q2253796"},"geometry": {"type": "Point","coordinates": [7.362,51.0235]}},{"type": "Feature","properties": {"marker-color": "#000000","marker-size": "small","name": "Schwarz (Calbe)", "link": "http://www.wikidata.org/entity/Q2253407"},"geometry": {"type": "Point","coordinates": [11.797,51.8896]}},{"type": "Feature","properties": {"marker-color": "#000000","marker-size": "small","name": "Schwarzach", "link": "http://www.wikidata.org/entity/Q2253446"},"geometry": {"type": "Point","coordinates": [8.04474,48.7457]}},{"type": "Feature","properties": {"marker-color": "#000000","marker-size": "small","name": "Schwarzach", "link": "http://www.wikidata.org/entity/Q2253452"},"geometry": {"type": "Point","coordinates": [12.638891,49.493483]}},{"type": "Feature","properties": {"marker-color": "#000000","marker-size": "small","name": "Schwarzach b. Kulmbach", "link": "http://www.wikidata.org/entity/Q2253457"},"geometry": {"type": "Point","coordinates": [11.3594,50.1092]}},{"type": "Feature","properties": {"marker-color": "#000000","marker-size": "small","name": "Schwarzbach", "link": "http://www.wikidata.org/entity/Q2253475"},"geometry": {"type": "Point","coordinates": [10.8291,50.4841]}},{"type": "Feature","properties": {"marker-color": "#000000","marker-size": "small","name": "Schwarzbach (Hofbieber)", "link": "http://www.wikidata.org/entity/Q2253498"},"geometry": {"type": "Point","coordinates": [9.90087,50.6084]}},{"type": "Feature","properties": {"marker-color": "#000000","marker-size": "small","name": "Schwarze Heide", "link": "http://www.wikidata.org/entity/Q2253657"},"geometry": {"type": "Point","coordinates": [6.83678,51.5107]}},{"type": "Feature","properties": {"marker-color": "#000000","marker-size": "small","name": "Schwarzer Berg", "link": "http://www.wikidata.org/entity/Q2253914"},"geometry": {"type": "Point","coordinates": [10.5091,52.291]}},{"type": "Feature","properties": {"marker-color": "#000000","marker-size": "small","name": "Schwarzhausen", "link": "http://www.wikidata.org/entity/Q2254246"},"geometry": {"type": "Point","coordinates": [10.4703,50.9022]}},{"type": "Feature","properties": {"marker-color": "#000000","marker-size": "small","name": "Schwarzmaar", "link": "http://www.wikidata.org/entity/Q2254325"},"geometry": {"type": "Point","coordinates": [6.87,50.72]}},{"type": "Feature","properties": {"marker-color": "#000000","marker-size": "small","name": "Schwarzwald", "link": "http://www.wikidata.org/entity/Q2254456"},"geometry": {"type": "Point","coordinates": [10.7294,50.7706]}},{"type": "Feature","properties": {"marker-color": "#000000","marker-size": "small","name": "Schwarzenshof", "link": "http://www.wikidata.org/entity/Q2253885"},"geometry": {"type": "Point","coordinates": [11.2868,50.7084]}},{"type": "Feature","properties": {"marker-color": "#000000","marker-size": "small","name": "Schwarzenstein", "link": "http://www.wikidata.org/entity/Q2253891"},"geometry": {"type": "Point","coordinates": [11.6065,50.2717]}},{"type": "Feature","properties": {"marker-color": "#000000","marker-size": "small","name": "Schwarzer Adler", "link": "http://www.wikidata.org/entity/Q2253904"},"geometry": {"type": "Point","coordinates": [7.135,51.351]}},{"type": "Feature","properties": {"marker-color": "#000000","marker-size": "small","name": "Schwarzenborn (Cölbe)", "link": "http://www.wikidata.org/entity/Q2253839"},"geometry": {"type": "Point","coordinates": [8.85972,50.8953]}},{"type": "Feature","properties": {"marker-color": "#000000","marker-size": "small","name": "Schwarzenfels", "link": "http://www.wikidata.org/entity/Q2253863"},"geometry": {"type": "Point","coordinates": [9.67389,50.2997]}},{"type": "Feature","properties": {"marker-color": "#000000","marker-size": "small","name": "Schwarzenholz", "link": "http://www.wikidata.org/entity/Q2253872"},"geometry": {"type": "Point","coordinates": [6.861388888,49.333333333]}},{"type": "Feature","properties": {"marker-color": "#000000","marker-size": "small","name": "Unterschwarzach", "link": "http://www.wikidata.org/entity/Q2498966"},"geometry": {"type": "Point","coordinates": [9.87222222,47.9525]}},{"type": "Feature","properties": {"marker-color": "#000000","marker-size": "small","name": "Unterschwarzen", "link": "http://www.wikidata.org/entity/Q2498967"},"geometry": {"type": "Point","coordinates": [7.33639,51.0789]}},{"type": "Feature","properties": {"marker-color": "#000000","marker-size": "small","name": "Schönenbach (Furtwangen im Schwarzwald)", "link": "http://www.wikidata.org/entity/Q2259069"},"geometry": {"type": "Point","coordinates": [8.23927,48.047]}},{"type": "Feature","properties": {"marker-color": "#000000","marker-size": "small","name": "Schwarzadler", "link": "http://www.wikidata.org/entity/Q10816896"},"geometry": {"type": "Point","coordinates": [14.371533,51.236777]}},{"type": "Feature","properties": {"marker-color": "#000000","marker-size": "small","name": "Stadtschwarzach", "link": "http://www.wikidata.org/entity/Q15060105"},"geometry": {"type": "Point","coordinates": [10.22928,49.79957]}},{"type": "Feature","properties": {"marker-color": "#000000","marker-size": "small","name": "Schwarzenau", "link": "http://www.wikidata.org/entity/Q15128043"},"geometry": {"type": "Point","coordinates": [10.21456,49.80622]}},{"type": "Feature","properties": {"marker-color": "#000000","marker-size": "small","name": "Stadelschwarzach", "link": "http://www.wikidata.org/entity/Q18028111"},"geometry": {"type": "Point","coordinates": [10.33036709,49.83634186]}},{"type": "Feature","properties": {"marker-color": "#000000","marker-size": "small","name": "Kleinschwarzenlohe", "link": "http://www.wikidata.org/entity/Q19288048"},"geometry": {"type": "Point","coordinates": [11.10825,49.34752]}},{"type": "Feature","properties": {"marker-color": "#000000","marker-size": "small","name": "Münsterschwarzach", "link": "http://www.wikidata.org/entity/Q15058058"},"geometry": {"type": "Point","coordinates": [10.23219,49.80513]}},{"type": "Feature","properties": {"marker-color": "#000000","marker-size": "small","name": "Haag bei Schwarzhofen", "link": "http://www.wikidata.org/entity/Q16064963"},"geometry": {"type": "Point","coordinates": [12.349086,49.397564]}},{"type": "Feature","properties": {"marker-color": "#000000","marker-size": "small","name": "Schwarzenbach", "link": "http://www.wikidata.org/entity/Q18612800"},"geometry": {"type": "Point","coordinates": [7.49236111,51.19216667]}},{"type": "Feature","properties": {"marker-color": "#000000","marker-size": "small","name": "Schwarzach", "link": "http://www.wikidata.org/entity/Q19308844"},"geometry": {"type": "Point","coordinates": [11.06700039,49.33300018]}},{"type": "Feature","properties": {"marker-color": "#000000","marker-size": "small","name": "Schwarzach", "link": "http://www.wikidata.org/entity/Q21057258"},"geometry": {"type": "Point","coordinates": [11.3077,49.2532]}},{"type": "Feature","properties": {"marker-color": "#000000","marker-size": "small","name": "Schwarzbruch", "link": "http://www.wikidata.org/entity/Q20737355"},"geometry": {"type": "Point","coordinates": [7.8,50.966666666]}},{"type": "Feature","properties": {"marker-color": "#000000","marker-size": "small","name": "Schwarzberg", "link": "http://www.wikidata.org/entity/Q22693885"},"geometry": {"type": "Point","coordinates": [12.21333333,49.58305556]}},{"type": "Feature","properties": {"marker-color": "#000000","marker-size": "small","name": "Schwarzwinkel", "link": "http://www.wikidata.org/entity/Q18630618"},"geometry": {"type": "Point","coordinates": [12.529078,50.512149]}},{"type": "Feature","properties": {"marker-color": "#000000","marker-size": "small","name": "Schwarzenbrunn", "link": "http://www.wikidata.org/entity/Q28777568"},"geometry": {"type": "Point","coordinates": [9.527475,49.549225]}},{"type": "Feature","properties": {"marker-color": "#000000","marker-size": "small","name": "Neustadt (Schwarzwald)", "link": "http://www.wikidata.org/entity/Q47520111"},"geometry": {"type": "Point","coordinates": [8.21411,47.91187]}},{"type": "Feature","properties": {"marker-color": "#000000","marker-size": "small","name": "Schwarzau im Schwarzautal", "link": "http://www.wikidata.org/entity/Q693422"},"geometry": {"type": "Point","coordinates": [15.6647,46.8762]}},{"type": "Feature","properties": {"marker-color": "#000000","marker-size": "small","name": "Schwarzenberg am Böhmerwald", "link": "http://www.wikidata.org/entity/Q693714"},"geometry": {"type": "Point","coordinates": [13.833333333,48.731944444]}},{"type": "Feature","properties": {"marker-color": "#000000","marker-size": "small","name": "Schwarzenbach an der Pielach", "link": "http://www.wikidata.org/entity/Q674386"},"geometry": {"type": "Point","coordinates": [15.383333333,47.933333333]}},{"type": "Feature","properties": {"marker-color": "#000000","marker-size": "small","name": "Kohlschwarz", "link": "http://www.wikidata.org/entity/Q695362"},"geometry": {"type": "Point","coordinates": [15.120277777,47.108611111]}},{"type": "Feature","properties": {"marker-color": "#000000","marker-size": "small","name": "Schwarzenberg", "link": "http://www.wikidata.org/entity/Q695371"},"geometry": {"type": "Point","coordinates": [9.853055555,47.413333333]}},{"type": "Feature","properties": {"marker-color": "#000000","marker-size": "small","name": "Schwarzau am Steinfeld", "link": "http://www.wikidata.org/entity/Q666003"},"geometry": {"type": "Point","coordinates": [16.166666666,47.716666666]}},{"type": "Feature","properties": {"marker-color": "#000000","marker-size": "small","name": "Schwarzach", "link": "http://www.wikidata.org/entity/Q701709"},"geometry": {"type": "Point","coordinates": [9.763055555,47.444722222]}},{"type": "Feature","properties": {"marker-color": "#000000","marker-size": "small","name": "Hainsdorf im Schwarzautal", "link": "http://www.wikidata.org/entity/Q688079"},"geometry": {"type": "Point","coordinates": [15.638055555,46.833611111]}},{"type": "Feature","properties": {"marker-color": "#000000","marker-size": "small","name": "Großschwarzenlohe", "link": "http://www.wikidata.org/entity/Q1485573"},"geometry": {"type": "Point","coordinates": [11.1131,49.3397]}},{"type": "Feature","properties": {"marker-color": "#000000","marker-size": "small","name": "Bauernhaus Schwarzinger", "link": "http://www.wikidata.org/entity/Q37993198"},"geometry": {"type": "Point","coordinates": [12.430549,47.523849]}},{"type": "Feature","properties": {"marker-color": "#000000","marker-size": "small","name": "Bauernhaus vulgo Schwarz (Schwarzhube)", "link": "http://www.wikidata.org/entity/Q38102050"},"geometry": {"type": "Point","coordinates": [14.715322,47.075865]}},{"type": "Feature","properties": {"marker-color": "#000000","marker-size": "small","name": "Schwarzenberg/Erzgeb.", "link": "http://www.wikidata.org/entity/Q57953"},"geometry": {"type": "Point","coordinates": [12.779166666,50.545277777]}},{"type": "Feature","properties": {"marker-color": "#000000","marker-size": "small","name": "Münster (Schwarzwald)", "link": "http://www.wikidata.org/entity/Q15122378"},"geometry": {"type": "Point","coordinates": [7.79722222,47.86111111]}},{"type": "Feature","properties": {"marker-color": "#000000","marker-size": "small","name": "Schwarzenbach", "link": "http://www.wikidata.org/entity/Q15846816"},"geometry": {"type": "Point","coordinates": [8.2115,47.2319]}},{"type": "Feature","properties": {"marker-color": "#000000","marker-size": "small","name": "Kleinschwarzenlohe", "link": "http://www.wikidata.org/entity/Q19288048"},"geometry": {"type": "Point","coordinates": [11.10825,49.34752]}},{"type": "Feature","properties": {"marker-color": "#000000","marker-size": "small","name": "Rudolstadt-Schwarza", "link": "http://www.wikidata.org/entity/Q1420842"},"geometry": {"type": "Point","coordinates": [11.32277778,50.68944444]}},{"type": "Feature","properties": {"marker-color": "#000000","marker-size": "small","name": "Schwarzmühle", "link": "http://www.wikidata.org/entity/Q1259836"},"geometry": {"type": "Point","coordinates": [11.0764,50.5804]}},{"type": "Feature","properties": {"marker-color": "#000000","marker-size": "small","name": "Schwarzwasser bei Neustadt", "link": "http://www.wikidata.org/entity/Q1540781"},"geometry": {"type": "Point","coordinates": [12.3375,52.8102]}},{"type": "Feature","properties": {"marker-color": "#000000","marker-size": "small","name": "Schwarzwald", "link": "http://www.wikidata.org/entity/Q1672837"},"geometry": {"type": "Point","coordinates": [11.1256,50.3946]}},{"type": "Feature","properties": {"marker-color": "#000000","marker-size": "small","name": "Schwarzbach", "link": "http://www.wikidata.org/entity/Q1669891"},"geometry": {"type": "Point","coordinates": [12.927,47.7634]}},{"type": "Feature","properties": {"marker-color": "#000000","marker-size": "small","name": "Kleinschwarzenbach", "link": "http://www.wikidata.org/entity/Q1747030"},"geometry": {"type": "Point","coordinates": [11.7058,50.2469]}},{"type": "Feature","properties": {"marker-color": "#000000","marker-size": "small","name": "Schwarzach b. Kulmbach", "link": "http://www.wikidata.org/entity/Q2253457"},"geometry": {"type": "Point","coordinates": [11.3594,50.1092]}},{"type": "Feature","properties": {"marker-color": "#000000","marker-size": "small","name": "Schwarzbach (Elmstein)", "link": "http://www.wikidata.org/entity/Q2253490"},"geometry": {"type": "Point","coordinates": [7.8408,49.3424]}},{"type": "Feature","properties": {"marker-color": "#000000","marker-size": "small","name": "Schwarzbach (Schwallungen)", "link": "http://www.wikidata.org/entity/Q2253510"},"geometry": {"type": "Point","coordinates": [10.2822,50.6644]}},{"type": "Feature","properties": {"marker-color": "#000000","marker-size": "small","name": "Schwarze Heide (Hannover)", "link": "http://www.wikidata.org/entity/Q2253652"},"geometry": {"type": "Point","coordinates": [9.65,52.4306]}},{"type": "Feature","properties": {"marker-color": "#000000","marker-size": "small","name": "Schwarze Pfütze", "link": "http://www.wikidata.org/entity/Q2253697"},"geometry": {"type": "Point","coordinates": [10.1549,50.1795]}},{"type": "Feature","properties": {"marker-color": "#000000","marker-size": "small","name": "Schwarzenthal", "link": "http://www.wikidata.org/entity/Q2253901"},"geometry": {"type": "Point","coordinates": [13.7153,48.8662]}},{"type": "Feature","properties": {"marker-color": "#000000","marker-size": "small","name": "Schwarzmühle (Weismain)", "link": "http://www.wikidata.org/entity/Q2254348"},"geometry": {"type": "Point","coordinates": [11.199,50.0265]}},{"type": "Feature","properties": {"marker-color": "#000000","marker-size": "small","name": "Schwarzwaldalp", "link": "http://www.wikidata.org/entity/Q2254459"},"geometry": {"type": "Point","coordinates": [8.133944444,46.675527777]}},{"type": "Feature","properties": {"marker-color": "#000000","marker-size": "small","name": "Schönenbach (Furtwangen im Schwarzwald)", "link": "http://www.wikidata.org/entity/Q2259069"},"geometry": {"type": "Point","coordinates": [8.23927,48.047]}},{"type": "Feature","properties": {"marker-color": "#000000","marker-size": "small","name": "Stadtschwarzach", "link": "http://www.wikidata.org/entity/Q15060105"},"geometry": {"type": "Point","coordinates": [10.22928,49.79957]}},{"type": "Feature","properties": {"marker-color": "#000000","marker-size": "small","name": "Schwarzendamm", "link": "http://www.wikidata.org/entity/Q15846817"},"geometry": {"type": "Point","coordinates": [11.04,52.60111111]}},{"type": "Feature","properties": {"marker-color": "#000000","marker-size": "small","name": "Schwarzenberg/Erzgeb.", "link": "http://www.wikidata.org/entity/Q57953"},"geometry": {"type": "Point","coordinates": [12.779166666,50.545277777]}},{"type": "Feature","properties": {"marker-color": "#000000","marker-size": "small","name": "Schwarzenbergkaserne", "link": "http://www.wikidata.org/entity/Q2253820"},"geometry": {"type": "Point","coordinates": [12.9835,47.7971]}},{"type": "Feature","properties": {"marker-color": "#000000","marker-size": "small","name": "Black Rock", "link": "http://www.wikidata.org/entity/Q79537"},"geometry": {"type": "Point","coordinates": [-91.0989,36.1078]}},{"type": "Feature","properties": {"marker-color": "#000000","marker-size": "small","name": "Blackshear", "link": "http://www.wikidata.org/entity/Q670594"},"geometry": {"type": "Point","coordinates": [-82.2478,31.2989]}},{"type": "Feature","properties": {"marker-color": "#000000","marker-size": "small","name": "Blackburn", "link": "http://www.wikidata.org/entity/Q960921"},"geometry": {"type": "Point","coordinates": [-93.4847,39.1039]}},{"type": "Feature","properties": {"marker-color": "#000000","marker-size": "small","name": "Black Jack", "link": "http://www.wikidata.org/entity/Q880344"},"geometry": {"type": "Point","coordinates": [-90.2619,38.7908]}},{"type": "Feature","properties": {"marker-color": "#000000","marker-size": "small","name": "Black Hawk", "link": "http://www.wikidata.org/entity/Q880294"},"geometry": {"type": "Point","coordinates": [-105.492,39.8031]}},{"type": "Feature","properties": {"marker-color": "#000000","marker-size": "small","name": "Blackwater", "link": "http://www.wikidata.org/entity/Q952998"},"geometry": {"type": "Point","coordinates": [-92.9908,38.9794]}},{"type": "Feature","properties": {"marker-color": "#000000","marker-size": "small","name": "Black Lick", "link": "http://www.wikidata.org/entity/Q1134720"},"geometry": {"type": "Point","coordinates": [-79.192777777,40.4725]}},{"type": "Feature","properties": {"marker-color": "#000000","marker-size": "small","name": "Blacksville", "link": "http://www.wikidata.org/entity/Q2613715"},"geometry": {"type": "Point","coordinates": [-84.1508,33.4217]}},{"type": "Feature","properties": {"marker-color": "#000000","marker-size": "small","name": "Black River-Matheson", "link": "http://www.wikidata.org/entity/Q4921608"},"geometry": {"type": "Point","coordinates": [-80.4667,48.5333]}},{"type": "Feature","properties": {"marker-color": "#000000","marker-size": "small","name": "Blackwell", "link": "http://www.wikidata.org/entity/Q969903"},"geometry": {"type": "Point","coordinates": [-100.32,32.0856]}},{"type": "Feature","properties": {"marker-color": "#000000","marker-size": "small","name": "Black Mesa", "link": "http://www.wikidata.org/entity/Q1774742"},"geometry": {"type": "Point","coordinates": [-113.839,34.2808]}},{"type": "Feature","properties": {"marker-color": "#000000","marker-size": "small","name": "Black Mesa", "link": "http://www.wikidata.org/entity/Q1774742"},"geometry": {"type": "Point","coordinates": [-113.83855,34.28085]}},{"type": "Feature","properties": {"marker-color": "#000000","marker-size": "small","name": "Black Rock", "link": "http://www.wikidata.org/entity/Q2905456"},"geometry": {"type": "Point","coordinates": [-78.9,42.935]}},{"type": "Feature","properties": {"marker-color": "#000000","marker-size": "small","name": "Black Diamond", "link": "http://www.wikidata.org/entity/Q1191152"},"geometry": {"type": "Point","coordinates": [-122.014722222,47.317777777]}},{"type": "Feature","properties": {"marker-color": "#000000","marker-size": "small","name": "Blackfoot", "link": "http://www.wikidata.org/entity/Q1444005"},"geometry": {"type": "Point","coordinates": [-112.346111111,43.19]}},{"type": "Feature","properties": {"marker-color": "#000000","marker-size": "small","name": "Blac", "link": "http://www.wikidata.org/entity/Q3471718"},"geometry": {"type": "Point","coordinates": [-90.933055555,37.531388888]}},{"type": "Feature","properties": {"marker-color": "#000000","marker-size": "small","name": "Blackhawk", "link": "http://www.wikidata.org/entity/Q3470840"},"geometry": {"type": "Point","coordinates": [-121.907777777,37.820833333]}},{"type": "Feature","properties": {"marker-color": "#000000","marker-size": "small","name": "Upper Black Eddy", "link": "http://www.wikidata.org/entity/Q3709507"},"geometry": {"type": "Point","coordinates": [-75.09972222,40.56527778]}},{"type": "Feature","properties": {"marker-color": "#000000","marker-size": "small","name": "Black", "link": "http://www.wikidata.org/entity/Q4088433"},"geometry": {"type": "Point","coordinates": [-90.998055555,40.070277777]}},{"type": "Feature","properties": {"marker-color": "#000000","marker-size": "small","name": "Blackduck", "link": "http://www.wikidata.org/entity/Q1926696"},"geometry": {"type": "Point","coordinates": [-94.548611111,47.733055555]}},{"type": "Feature","properties": {"marker-color": "#000000","marker-size": "small","name": "Blackduck", "link": "http://www.wikidata.org/entity/Q1926696"},"geometry": {"type": "Point","coordinates": [-94.54861111,47.73305556]}},{"type": "Feature","properties": {"marker-color": "#000000","marker-size": "small","name": "Blackford", "link": "http://www.wikidata.org/entity/Q4922870"},"geometry": {"type": "Point","coordinates": [-87.9347,37.4483]}},{"type": "Feature","properties": {"marker-color": "#000000","marker-size": "small","name": "Blackhawk", "link": "http://www.wikidata.org/entity/Q4922942"},"geometry": {"type": "Point","coordinates": [-90.2239,42.1875]}},{"type": "Feature","properties": {"marker-color": "#000000","marker-size": "small","name": "Blackhawk", "link": "http://www.wikidata.org/entity/Q4922943"},"geometry": {"type": "Point","coordinates": [-87.3003,39.3089]}},{"type": "Feature","properties": {"marker-color": "#000000","marker-size": "small","name": "Black", "link": "http://www.wikidata.org/entity/Q4920047"},"geometry": {"type": "Point","coordinates": [-88.1028,38.4678]}},{"type": "Feature","properties": {"marker-color": "#000000","marker-size": "small","name": "Black", "link": "http://www.wikidata.org/entity/Q4920050"},"geometry": {"type": "Point","coordinates": [-81.2636,37.4939]}},{"type": "Feature","properties": {"marker-color": "#000000","marker-size": "small","name": "Black Ankl", "link": "http://www.wikidata.org/entity/Q4920274"},"geometry": {"type": "Point","coordinates": [-79.8073,35.5019]}},{"type": "Feature","properties": {"marker-color": "#000000","marker-size": "small","name": "Black Ankle", "link": "http://www.wikidata.org/entity/Q4920275"},"geometry": {"type": "Point","coordinates": [-94.0047,31.5239]}},{"type": "Feature","properties": {"marker-color": "#000000","marker-size": "small","name": "Black Bayou", "link": "http://www.wikidata.org/entity/Q4920337"},"geometry": {"type": "Point","coordinates": [-90.279,33.819]}},{"type": "Feature","properties": {"marker-color": "#000000","marker-size": "small","name": "Black Bets", "link": "http://www.wikidata.org/entity/Q4920366"},"geometry": {"type": "Point","coordinates": [-81.8356,38.4997]}},{"type": "Feature","properties": {"marker-color": "#000000","marker-size": "small","name": "Black Botto", "link": "http://www.wikidata.org/entity/Q4920405"},"geometry": {"type": "Point","coordinates": [-86.86,33.9481]}},{"type": "Feature","properties": {"marker-color": "#000000","marker-size": "small","name": "Black Butte", "link": "http://www.wikidata.org/entity/Q4920455"},"geometry": {"type": "Point","coordinates": [-122.361,41.3917]}},{"type": "Feature","properties": {"marker-color": "#000000","marker-size": "small","name": "Black Butte Ranch", "link": "http://www.wikidata.org/entity/Q4920461"},"geometry": {"type": "Point","coordinates": [-121.653611111,44.377222222]}},{"type": "Feature","properties": {"marker-color": "#000000","marker-size": "small","name": "Black Creek", "link": "http://www.wikidata.org/entity/Q4920584"},"geometry": {"type": "Point","coordinates": [-81.4894,32.1664]}},{"type": "Feature","properties": {"marker-color": "#000000","marker-size": "small","name": "Black Creek", "link": "http://www.wikidata.org/entity/Q4920585"},"geometry": {"type": "Point","coordinates": [-78.226388888,42.275555555]}},{"type": "Feature","properties": {"marker-color": "#000000","marker-size": "small","name": "Black Eagl", "link": "http://www.wikidata.org/entity/Q4920710"},"geometry": {"type": "Point","coordinates": [-81.3786,37.5861]}},{"type": "Feature","properties": {"marker-color": "#000000","marker-size": "small","name": "Black Gnat", "link": "http://www.wikidata.org/entity/Q4920831"},"geometry": {"type": "Point","coordinates": [-85.436388888,37.304166666]}},{"type": "Feature","properties": {"marker-color": "#000000","marker-size": "small","name": "Black Gold", "link": "http://www.wikidata.org/entity/Q4920835"},"geometry": {"type": "Point","coordinates": [-86.33,37.2594]}},{"type": "Feature","properties": {"marker-color": "#000000","marker-size": "small","name": "Black Hammer", "link": "http://www.wikidata.org/entity/Q4920861"},"geometry": {"type": "Point","coordinates": [-91.6611,43.6164]}},{"type": "Feature","properties": {"marker-color": "#000000","marker-size": "small","name": "Black Hawk", "link": "http://www.wikidata.org/entity/Q4920871"},"geometry": {"type": "Point","coordinates": [-90.0236,33.3261]}},{"type": "Feature","properties": {"marker-color": "#000000","marker-size": "small","name": "Black Hawk", "link": "http://www.wikidata.org/entity/Q4920873"},"geometry": {"type": "Point","coordinates": [-89.9272,43.2692]}},{"type": "Feature","properties": {"marker-color": "#000000","marker-size": "small","name": "Black Jack", "link": "http://www.wikidata.org/entity/Q4921062"},"geometry": {"type": "Point","coordinates": [-86.5128,36.7678]}},{"type": "Feature","properties": {"marker-color": "#000000","marker-size": "small","name": "Black Oak", "link": "http://www.wikidata.org/entity/Q4921394"},"geometry": {"type": "Point","coordinates": [-87.0811,38.6625]}},{"type": "Feature","properties": {"marker-color": "#000000","marker-size": "small","name": "Black Oa", "link": "http://www.wikidata.org/entity/Q4921396"},"geometry": {"type": "Point","coordinates": [-94.0797,35.9833]}},{"type": "Feature","properties": {"marker-color": "#000000","marker-size": "small","name": "Black Pearl", "link": "http://www.wikidata.org/entity/Q4921444"},"geometry": {"type": "Point","coordinates": [-90.1367,29.9364]}},{"type": "Feature","properties": {"marker-color": "#000000","marker-size": "small","name": "Black River", "link": "http://www.wikidata.org/entity/Q4921606"},"geometry": {"type": "Point","coordinates": [-92.1475,46.5622]}},{"type": "Feature","properties": {"marker-color": "#000000","marker-size": "small","name": "Black Rock", "link": "http://www.wikidata.org/entity/Q4921694"},"geometry": {"type": "Point","coordinates": [-73.2253,41.1586]}},{"type": "Feature","properties": {"marker-color": "#000000","marker-size": "small","name": "Black Snake", "link": "http://www.wikidata.org/entity/Q4921863"},"geometry": {"type": "Point","coordinates": [-83.5033,36.7681]}},{"type": "Feature","properties": {"marker-color": "#000000","marker-size": "small","name": "Black Star Coal Camp", "link": "http://www.wikidata.org/entity/Q4921904"},"geometry": {"type": "Point","coordinates": [-83.4183,36.7322]}},{"type": "Feature","properties": {"marker-color": "#000000","marker-size": "small","name": "Black Wolf Point", "link": "http://www.wikidata.org/entity/Q4922173"},"geometry": {"type": "Point","coordinates": [-88.4714,43.9275]}},{"type": "Feature","properties": {"marker-color": "#000000","marker-size": "small","name": "Black Wolf", "link": "http://www.wikidata.org/entity/Q4922174"},"geometry": {"type": "Point","coordinates": [-81.4861,37.3361]}},{"type": "Feature","properties": {"marker-color": "#000000","marker-size": "small","name": "Blackberr", "link": "http://www.wikidata.org/entity/Q4922552"},"geometry": {"type": "Point","coordinates": [-76.2816,37.859]}},{"type": "Feature","properties": {"marker-color": "#000000","marker-size": "small","name": "Blackberry City", "link": "http://www.wikidata.org/entity/Q4922558"},"geometry": {"type": "Point","coordinates": [-82.16638889,37.61138889]}},{"type": "Feature","properties": {"marker-color": "#000000","marker-size": "small","name": "Blackburn", "link": "http://www.wikidata.org/entity/Q4922639"},"geometry": {"type": "Point","coordinates": [-94.2196,35.9831]}},{"type": "Feature","properties": {"marker-color": "#000000","marker-size": "small","name": "Blackhaw", "link": "http://www.wikidata.org/entity/Q4922944"},"geometry": {"type": "Point","coordinates": [-81.5867,38.3336]}},{"type": "Feature","properties": {"marker-color": "#000000","marker-size": "small","name": "Blackhawk Island", "link": "http://www.wikidata.org/entity/Q4922966"},"geometry": {"type": "Point","coordinates": [-88.8922,42.8983]}},{"type": "Feature","properties": {"marker-color": "#000000","marker-size": "small","name": "Blackhors", "link": "http://www.wikidata.org/entity/Q4923012"},"geometry": {"type": "Point","coordinates": [-80.5956,40.4844]}},{"type": "Feature","properties": {"marker-color": "#000000","marker-size": "small","name": "Blackiston Mil", "link": "http://www.wikidata.org/entity/Q4923042"},"geometry": {"type": "Point","coordinates": [-85.7981,38.3356]}},{"type": "Feature","properties": {"marker-color": "#000000","marker-size": "small","name": "Blackjoe", "link": "http://www.wikidata.org/entity/Q4923067"},"geometry": {"type": "Point","coordinates": [-83.2819,36.8617]}},{"type": "Feature","properties": {"marker-color": "#000000","marker-size": "small","name": "Blacklick", "link": "http://www.wikidata.org/entity/Q4923092"},"geometry": {"type": "Point","coordinates": [-81.2567,36.9431]}},{"type": "Feature","properties": {"marker-color": "#000000","marker-size": "small","name": "Blacklic", "link": "http://www.wikidata.org/entity/Q4923095"},"geometry": {"type": "Point","coordinates": [-82.811388888,39.995555555]}},{"type": "Feature","properties": {"marker-color": "#000000","marker-size": "small","name": "Blackman", "link": "http://www.wikidata.org/entity/Q4923139"},"geometry": {"type": "Point","coordinates": [-86.4983,35.8753]}},{"type": "Feature","properties": {"marker-color": "#000000","marker-size": "small","name": "Blackpipe", "link": "http://www.wikidata.org/entity/Q4923229"},"geometry": {"type": "Point","coordinates": [-101.275,43.3439]}},{"type": "Feature","properties": {"marker-color": "#000000","marker-size": "small","name": "Blackridge", "link": "http://www.wikidata.org/entity/Q4923297"},"geometry": {"type": "Point","coordinates": [-79.86374,40.44825]}},{"type": "Feature","properties": {"marker-color": "#000000","marker-size": "small","name": "Blackrock", "link": "http://www.wikidata.org/entity/Q4923302"},"geometry": {"type": "Point","coordinates": [-118.233333333,36.929166666]}},{"type": "Feature","properties": {"marker-color": "#000000","marker-size": "small","name": "Blackroc", "link": "http://www.wikidata.org/entity/Q4923304"},"geometry": {"type": "Point","coordinates": [-76.8611,39.7217]}},{"type": "Feature","properties": {"marker-color": "#000000","marker-size": "small","name": "Blackroc", "link": "http://www.wikidata.org/entity/Q4923306"},"geometry": {"type": "Point","coordinates": [-119.998,46.5115]}},{"type": "Feature","properties": {"marker-color": "#000000","marker-size": "small","name": "Blackstock", "link": "http://www.wikidata.org/entity/Q4923378"},"geometry": {"type": "Point","coordinates": [-81.1522,34.5586]}},{"type": "Feature","properties": {"marker-color": "#000000","marker-size": "small","name": "Blackstone", "link": "http://www.wikidata.org/entity/Q4923383"},"geometry": {"type": "Point","coordinates": [-88.6908,41.0844]}},{"type": "Feature","properties": {"marker-color": "#000000","marker-size": "small","name": "Blackton", "link": "http://www.wikidata.org/entity/Q4923471"},"geometry": {"type": "Point","coordinates": [-91.104166666,34.6675]}},{"type": "Feature","properties": {"marker-color": "#000000","marker-size": "small","name": "Blackwate", "link": "http://www.wikidata.org/entity/Q4923513"},"geometry": {"type": "Point","coordinates": [-83.0508,36.6272]}},{"type": "Feature","properties": {"marker-color": "#000000","marker-size": "small","name": "Blackwate", "link": "http://www.wikidata.org/entity/Q4923516"},"geometry": {"type": "Point","coordinates": [-76.39972222,37.42666667]}},{"type": "Feature","properties": {"marker-color": "#000000","marker-size": "small","name": "Blackwate", "link": "http://www.wikidata.org/entity/Q4923521"},"geometry": {"type": "Point","coordinates": [-80.624,36.397]}},{"type": "Feature","properties": {"marker-color": "#000000","marker-size": "small","name": "Blackwater Beac", "link": "http://www.wikidata.org/entity/Q4923531"},"geometry": {"type": "Point","coordinates": [-75.1578,38.58]}},{"type": "Feature","properties": {"marker-color": "#000000","marker-size": "small","name": "Blackwell", "link": "http://www.wikidata.org/entity/Q4923580"},"geometry": {"type": "Point","coordinates": [-77.3792,41.5564]}},{"type": "Feature","properties": {"marker-color": "#000000","marker-size": "small","name": "Blackwel", "link": "http://www.wikidata.org/entity/Q4923581"},"geometry": {"type": "Point","coordinates": [-81.8564,36.8286]}},{"type": "Feature","properties": {"marker-color": "#000000","marker-size": "small","name": "Blackwell (community", "link": "http://www.wikidata.org/entity/Q4923582"},"geometry": {"type": "Point","coordinates": [-88.6125,45.5142]}},{"type": "Feature","properties": {"marker-color": "#000000","marker-size": "small","name": "Blackwell Junction", "link": "http://www.wikidata.org/entity/Q4923597"},"geometry": {"type": "Point","coordinates": [-88.6542,45.5317]}},{"type": "Feature","properties": {"marker-color": "#000000","marker-size": "small","name": "Blackwell", "link": "http://www.wikidata.org/entity/Q4923609"},"geometry": {"type": "Point","coordinates": [-76.3572,37.8542]}},{"type": "Feature","properties": {"marker-color": "#000000","marker-size": "small","name": "Blackwood", "link": "http://www.wikidata.org/entity/Q4923622"},"geometry": {"type": "Point","coordinates": [-79.072222222,35.9925]}},{"type": "Feature","properties": {"marker-color": "#000000","marker-size": "small","name": "Blackwood", "link": "http://www.wikidata.org/entity/Q4923623"},"geometry": {"type": "Point","coordinates": [-82.6931,36.925]}},{"type": "Feature","properties": {"marker-color": "#000000","marker-size": "small","name": "Convers", "link": "http://www.wikidata.org/entity/Q5166448"},"geometry": {"type": "Point","coordinates": [-85.2392,40.3894]}},{"type": "Feature","properties": {"marker-color": "#000000","marker-size": "small","name": "Blackwell", "link": "http://www.wikidata.org/entity/Q2950210"},"geometry": {"type": "Point","coordinates": [-97.289722222,36.801666666]}},{"type": "Feature","properties": {"marker-color": "#000000","marker-size": "small","name": "Blackey", "link": "http://www.wikidata.org/entity/Q2440961"},"geometry": {"type": "Point","coordinates": [-82.9794,37.1403]}},{"type": "Feature","properties": {"marker-color": "#000000","marker-size": "small","name": "Fort Blackmore", "link": "http://www.wikidata.org/entity/Q5470819"},"geometry": {"type": "Point","coordinates": [-82.5869,36.7744]}},{"type": "Feature","properties": {"marker-color": "#000000","marker-size": "small","name": "Blackgum", "link": "http://www.wikidata.org/entity/Q5729646"},"geometry": {"type": "Point","coordinates": [-94.9921,35.612]}},{"type": "Feature","properties": {"marker-color": "#000000","marker-size": "small","name": "Left Fork of Blackberry", "link": "http://www.wikidata.org/entity/Q6516851"},"geometry": {"type": "Point","coordinates": [-82.2069,37.5253]}},{"type": "Feature","properties": {"marker-color": "#000000","marker-size": "small","name": "Blackboroug", "link": "http://www.wikidata.org/entity/Q4922608"},"geometry": {"type": "Point","coordinates": [-3.28612,50.8718]}},{"type": "Feature","properties": {"marker-color": "#000000","marker-size": "small","name": "Blackbroo", "link": "http://www.wikidata.org/entity/Q4922627"},"geometry": {"type": "Point","coordinates": [-1.508,53.027]}},{"type": "Feature","properties": {"marker-color": "#000000","marker-size": "small","name": "Blackdyke", "link": "http://www.wikidata.org/entity/Q4922788"},"geometry": {"type": "Point","coordinates": [-3.34,54.85]}},{"type": "Feature","properties": {"marker-color": "#000000","marker-size": "small","name": "Blackpool Gate", "link": "http://www.wikidata.org/entity/Q4923251"},"geometry": {"type": "Point","coordinates": [-2.7348,55.0915]}},{"type": "Feature","properties": {"marker-color": "#000000","marker-size": "small","name": "Black Notley", "link": "http://www.wikidata.org/entity/Q932687"},"geometry": {"type": "Point","coordinates": [0.566,51.8519]}},{"type": "Feature","properties": {"marker-color": "#000000","marker-size": "small","name": "Sam Black Churc", "link": "http://www.wikidata.org/entity/Q7407189"},"geometry": {"type": "Point","coordinates": [-80.6311,37.8989]}},{"type": "Feature","properties": {"marker-color": "#000000","marker-size": "small","name": "Blackwall", "link": "http://www.wikidata.org/entity/Q880955"},"geometry": {"type": "Point","coordinates": [152.767,-27.55]}},{"type": "Feature","properties": {"marker-color": "#000000","marker-size": "small","name": "Blackawton", "link": "http://www.wikidata.org/entity/Q1885239"},"geometry": {"type": "Point","coordinates": [-3.68135,50.345819444]}},{"type": "Feature","properties": {"marker-color": "#000000","marker-size": "small","name": "Blackwells Corner", "link": "http://www.wikidata.org/entity/Q9174156"},"geometry": {"type": "Point","coordinates": [-119.867777777,35.615]}},{"type": "Feature","properties": {"marker-color": "#000000","marker-size": "small","name": "Blackwel", "link": "http://www.wikidata.org/entity/Q10956916"},"geometry": {"type": "Point","coordinates": [-90.618,38.044]}},{"type": "Feature","properties": {"marker-color": "#000000","marker-size": "small","name": "Blackwatertown", "link": "http://www.wikidata.org/entity/Q1940472"},"geometry": {"type": "Point","coordinates": [-6.7,54.413]}},{"type": "Feature","properties": {"marker-color": "#000000","marker-size": "small","name": "Blackwel", "link": "http://www.wikidata.org/entity/Q1920099"},"geometry": {"type": "Point","coordinates": [-1.354,53.12]}},{"type": "Feature","properties": {"marker-color": "#000000","marker-size": "small","name": "Blackisto", "link": "http://www.wikidata.org/entity/Q14655154"},"geometry": {"type": "Point","coordinates": [-75.7006,39.2706]}},{"type": "Feature","properties": {"marker-color": "#000000","marker-size": "small","name": "Blackbird", "link": "http://www.wikidata.org/entity/Q14685260"},"geometry": {"type": "Point","coordinates": [-75.6592,39.3708]}},{"type": "Feature","properties": {"marker-color": "#000000","marker-size": "small","name": "Black Bottom", "link": "http://www.wikidata.org/entity/Q14690111"},"geometry": {"type": "Point","coordinates": [-83.0803,36.9089]}},{"type": "Feature","properties": {"marker-color": "#000000","marker-size": "small","name": "Black Cat", "link": "http://www.wikidata.org/entity/Q14690114"},"geometry": {"type": "Point","coordinates": [-88.5022,36.9556]}},{"type": "Feature","properties": {"marker-color": "#000000","marker-size": "small","name": "Black Hawk", "link": "http://www.wikidata.org/entity/Q14690116"},"geometry": {"type": "Point","coordinates": [-87.8744,36.96]}},{"type": "Feature","properties": {"marker-color": "#000000","marker-size": "small","name": "Blackmont", "link": "http://www.wikidata.org/entity/Q14690119"},"geometry": {"type": "Point","coordinates": [-83.525,36.7917]}},{"type": "Feature","properties": {"marker-color": "#000000","marker-size": "small","name": "Black Wolf", "link": "http://www.wikidata.org/entity/Q14689393"},"geometry": {"type": "Point","coordinates": [-98.3619,38.7583]}},{"type": "Feature","properties": {"marker-color": "#000000","marker-size": "small","name": "Black Haw", "link": "http://www.wikidata.org/entity/Q14691584"},"geometry": {"type": "Point","coordinates": [-91.6361,31.1553]}},{"type": "Feature","properties": {"marker-color": "#000000","marker-size": "small","name": "Blackrock", "link": "http://www.wikidata.org/entity/Q14709380"},"geometry": {"type": "Point","coordinates": [-71.5436,41.7167]}},{"type": "Feature","properties": {"marker-color": "#000000","marker-size": "small","name": "Black Botto", "link": "http://www.wikidata.org/entity/Q14713972"},"geometry": {"type": "Point","coordinates": [-82.0036,37.8461]}},{"type": "Feature","properties": {"marker-color": "#000000","marker-size": "small","name": "Black Rock", "link": "http://www.wikidata.org/entity/Q2905456"},"geometry": {"type": "Point","coordinates": [-78.9,42.935]}},{"type": "Feature","properties": {"marker-color": "#000000","marker-size": "small","name": "Black Wolf (community", "link": "http://www.wikidata.org/entity/Q14714409"},"geometry": {"type": "Point","coordinates": [-88.5236,43.9378]}},{"type": "Feature","properties": {"marker-color": "#000000","marker-size": "small","name": "Little Black (community", "link": "http://www.wikidata.org/entity/Q14714514"},"geometry": {"type": "Point","coordinates": [-90.3297,45.1061]}},{"type": "Feature","properties": {"marker-color": "#000000","marker-size": "small","name": "Blackberry", "link": "http://www.wikidata.org/entity/Q14692533"},"geometry": {"type": "Point","coordinates": [-93.3906,47.1808]}},{"type": "Feature","properties": {"marker-color": "#000000","marker-size": "small","name": "Black Point Landin", "link": "http://www.wikidata.org/entity/Q15199576"},"geometry": {"type": "Point","coordinates": [-75.38333333,37.90944444]}},{"type": "Feature","properties": {"marker-color": "#000000","marker-size": "small","name": "Blackston", "link": "http://www.wikidata.org/entity/Q15199624"},"geometry": {"type": "Point","coordinates": [-79.65194444,40.66194444]}},{"type": "Feature","properties": {"marker-color": "#000000","marker-size": "small","name": "Black Bottom", "link": "http://www.wikidata.org/entity/Q4920408"},"geometry": {"type": "Point","coordinates": [-75.1978,39.9574]}},{"type": "Feature","properties": {"marker-color": "#000000","marker-size": "small","name": "Black Mountain Ranch", "link": "http://www.wikidata.org/entity/Q4921351"},"geometry": {"type": "Point","coordinates": [-117.131853,33.002041]}},