{"type": "FeatureCollection",  "features": [{"type": "Feature","properties": {"marker-color": "#2d18e4","marker-size": "medium","name": "Porto Azzurro", "link": "http://www.wikidata.org/entity/Q157837"},"geometry": {"type": "Point","coordinates": [10.4,42.766666666]}},{"type": "Feature","properties": {"marker-color": "#2d18e4","marker-size": "medium","name": "Baia Azzurra-Levagnole", "link": "http://www.wikidata.org/entity/Q18436445"},"geometry": {"type": "Point","coordinates": [13.8492,41.14769]}},{"type": "Feature","properties": {"marker-color": "#2d18e4","marker-size": "medium","name": "Villaggio Azzurro II", "link": "http://www.wikidata.org/entity/Q18448870"},"geometry": {"type": "Point","coordinates": [8.95854,39.31454]}},{"type": "Feature","properties": {"marker-color": "#2d18e4","marker-size": "medium","name": "Atleti Azzurri d'Italia", "link": "http://www.wikidata.org/entity/Q18448094"},"geometry": {"type": "Point","coordinates": [13.44187,45.92782]}},{"type": "Feature","properties": {"marker-color": "#2d18e4","marker-size": "medium","name": "Lido Azzurro", "link": "http://www.wikidata.org/entity/Q18448170"},"geometry": {"type": "Point","coordinates": [17.13837,40.5165]}},{"type": "Feature","properties": {"marker-color": "#2d18e4","marker-size": "medium","name": "Villaggio Azzurro", "link": "http://www.wikidata.org/entity/Q18455376"},"geometry": {"type": "Point","coordinates": [12.44899,41.6766]}},{"type": "Feature","properties": {"marker-color": "#2d18e4","marker-size": "medium","name": "Lago Azzurro", "link": "http://www.wikidata.org/entity/Q18453773"},"geometry": {"type": "Point","coordinates": [12.96349,41.54742]}}]}
