{"type": "FeatureCollection",  "features": [{"type": "Feature","properties": {"marker-color": "#0000CD","marker-size": "medium","name": "Blue Spring", "link": "http://www.wikidata.org/entity/Q379010"},"geometry": {"type": "Point","coordinates": [-94.274444444,39.017777777]}},{"type": "Feature","properties": {"marker-color": "#0000CD","marker-size": "medium","name": "Blue Ash", "link": "http://www.wikidata.org/entity/Q885619"},"geometry": {"type": "Point","coordinates": [-84.376111111,39.247222222]}},{"type": "Feature","properties": {"marker-color": "#0000CD","marker-size": "medium","name": "Blue Earth", "link": "http://www.wikidata.org/entity/Q885694"},"geometry": {"type": "Point","coordinates": [-94.102222222,43.6375]}},{"type": "Feature","properties": {"marker-color": "#0000CD","marker-size": "medium","name": "Blue Hill", "link": "http://www.wikidata.org/entity/Q885727"},"geometry": {"type": "Point","coordinates": [-98.45,40.331111111]}},{"type": "Feature","properties": {"marker-color": "#0000CD","marker-size": "medium","name": "Bluefield", "link": "http://www.wikidata.org/entity/Q885991"},"geometry": {"type": "Point","coordinates": [-81.218611111,37.262222222]}},{"type": "Feature","properties": {"marker-color": "#0000CD","marker-size": "medium","name": "Blue Island", "link": "http://www.wikidata.org/entity/Q577829"},"geometry": {"type": "Point","coordinates": [-87.6794,41.6584]}},{"type": "Feature","properties": {"marker-color": "#0000CD","marker-size": "medium","name": "Blue Jay", "link": "http://www.wikidata.org/entity/Q885742"},"geometry": {"type": "Point","coordinates": [-117.208888888,34.246111111]}},{"type": "Feature","properties": {"marker-color": "#0000CD","marker-size": "medium","name": "Bluemont", "link": "http://www.wikidata.org/entity/Q886003"},"geometry": {"type": "Point","coordinates": [-77.8339,39.1111]}},{"type": "Feature","properties": {"marker-color": "#0000CD","marker-size": "medium","name": "Blue Springs", "link": "http://www.wikidata.org/entity/Q962044"},"geometry": {"type": "Point","coordinates": [-96.662777777,40.137777777]}},{"type": "Feature","properties": {"marker-color": "#0000CD","marker-size": "medium","name": "Blue Hills", "link": "http://www.wikidata.org/entity/Q754787"},"geometry": {"type": "Point","coordinates": [-72.6975,41.812777777]}},{"type": "Feature","properties": {"marker-color": "#0000CD","marker-size": "medium","name": "Blue Ridge", "link": "http://www.wikidata.org/entity/Q969451"},"geometry": {"type": "Point","coordinates": [-96.4017,33.2992]}},{"type": "Feature","properties": {"marker-color": "#0000CD","marker-size": "medium","name": "Blue Mound", "link": "http://www.wikidata.org/entity/Q969870"},"geometry": {"type": "Point","coordinates": [-97.3381,32.855]}},{"type": "Feature","properties": {"marker-color": "#0000CD","marker-size": "medium","name": "Blue Point", "link": "http://www.wikidata.org/entity/Q3460883"},"geometry": {"type": "Point","coordinates": [-73.0344,40.7503]}},{"type": "Feature","properties": {"marker-color": "#0000CD","marker-size": "medium","name": "Blue Summi", "link": "http://www.wikidata.org/entity/Q3471750"},"geometry": {"type": "Point","coordinates": [-94.481,39.087]}},{"type": "Feature","properties": {"marker-color": "#0000CD","marker-size": "medium","name": "Blue River", "link": "http://www.wikidata.org/entity/Q3474050"},"geometry": {"type": "Point","coordinates": [-122.34,44.154722222]}},{"type": "Feature","properties": {"marker-color": "#0000CD","marker-size": "medium","name": "Blue Ball", "link": "http://www.wikidata.org/entity/Q3960047"},"geometry": {"type": "Point","coordinates": [-76.047222222,40.118611111]}},{"type": "Feature","properties": {"marker-color": "#0000CD","marker-size": "medium","name": "Blue Rapids", "link": "http://www.wikidata.org/entity/Q1936616"},"geometry": {"type": "Point","coordinates": [-96.659444444,39.681666666]}},{"type": "Feature","properties": {"marker-color": "#0000CD","marker-size": "medium","name": "Bonny Blu", "link": "http://www.wikidata.org/entity/Q4942483"},"geometry": {"type": "Point","coordinates": [-83.0683,36.8269]}},{"type": "Feature","properties": {"marker-color": "#0000CD","marker-size": "medium","name": "Blue Grass", "link": "http://www.wikidata.org/entity/Q1944811"},"geometry": {"type": "Point","coordinates": [-90.765,41.511944444]}},{"type": "Feature","properties": {"marker-color": "#0000CD","marker-size": "medium","name": "Blue Ridge Manor", "link": "http://www.wikidata.org/entity/Q2053717"},"geometry": {"type": "Point","coordinates": [-85.5653,38.2436]}},{"type": "Feature","properties": {"marker-color": "#0000CD","marker-size": "medium","name": "Blue Ridge", "link": "http://www.wikidata.org/entity/Q2035614"},"geometry": {"type": "Point","coordinates": [-84.3211,34.8683]}},{"type": "Feature","properties": {"marker-color": "#0000CD","marker-size": "medium","name": "Blue", "link": "http://www.wikidata.org/entity/Q4928700"},"geometry": {"type": "Point","coordinates": [-109.107,33.6101]}},{"type": "Feature","properties": {"marker-color": "#0000CD","marker-size": "medium","name": "Blu", "link": "http://www.wikidata.org/entity/Q4928702"},"geometry": {"type": "Point","coordinates": [-80.8253,39.4475]}},{"type": "Feature","properties": {"marker-color": "#0000CD","marker-size": "medium","name": "Blue Anchor", "link": "http://www.wikidata.org/entity/Q4928821"},"geometry": {"type": "Point","coordinates": [-74.8828,39.6894]}},{"type": "Feature","properties": {"marker-color": "#0000CD","marker-size": "medium","name": "Blue Bal", "link": "http://www.wikidata.org/entity/Q4928848"},"geometry": {"type": "Point","coordinates": [-75.5447,39.7772]}},{"type": "Feature","properties": {"marker-color": "#0000CD","marker-size": "medium","name": "Blue Ben", "link": "http://www.wikidata.org/entity/Q4928871"},"geometry": {"type": "Point","coordinates": [-80.2686,37.9217]}},{"type": "Feature","properties": {"marker-color": "#0000CD","marker-size": "medium","name": "Blue Branc", "link": "http://www.wikidata.org/entity/Q4928922"},"geometry": {"type": "Point","coordinates": [-93.3572,38.2356]}},{"type": "Feature","properties": {"marker-color": "#0000CD","marker-size": "medium","name": "Blue Canyo", "link": "http://www.wikidata.org/entity/Q4928940"},"geometry": {"type": "Point","coordinates": [-120.711,39.2572]}},{"type": "Feature","properties": {"marker-color": "#0000CD","marker-size": "medium","name": "Blue Cree", "link": "http://www.wikidata.org/entity/Q4929006"},"geometry": {"type": "Point","coordinates": [-83.3303,38.7775]}},{"type": "Feature","properties": {"marker-color": "#0000CD","marker-size": "medium","name": "Blue Creek", "link": "http://www.wikidata.org/entity/Q4929008"},"geometry": {"type": "Point","coordinates": [-81.4572,38.4506]}},{"type": "Feature","properties": {"marker-color": "#0000CD","marker-size": "medium","name": "Blue Diamond", "link": "http://www.wikidata.org/entity/Q4929051"},"geometry": {"type": "Point","coordinates": [-83.2158,37.3078]}},{"type": "Feature","properties": {"marker-color": "#0000CD","marker-size": "medium","name": "Blue Gap", "link": "http://www.wikidata.org/entity/Q4929134"},"geometry": {"type": "Point","coordinates": [-109.946,36.1708]}},{"type": "Feature","properties": {"marker-color": "#0000CD","marker-size": "medium","name": "Blue Grass", "link": "http://www.wikidata.org/entity/Q4929148"},"geometry": {"type": "Point","coordinates": [-79.5497,38.5]}},{"type": "Feature","properties": {"marker-color": "#0000CD","marker-size": "medium","name": "Blue Hole", "link": "http://www.wikidata.org/entity/Q4929243"},"geometry": {"type": "Point","coordinates": [-84.8019,36.71]}},{"type": "Feature","properties": {"marker-color": "#0000CD","marker-size": "medium","name": "Blue Jay", "link": "http://www.wikidata.org/entity/Q4929280"},"geometry": {"type": "Point","coordinates": [-81.1378,37.7369]}},{"type": "Feature","properties": {"marker-color": "#0000CD","marker-size": "medium","name": "Blue Jay ", "link": "http://www.wikidata.org/entity/Q4929281"},"geometry": {"type": "Point","coordinates": [-81.1133,37.6828]}},{"type": "Feature","properties": {"marker-color": "#0000CD","marker-size": "medium","name": "Blue John", "link": "http://www.wikidata.org/entity/Q4929297"},"geometry": {"type": "Point","coordinates": [-84.4831,36.9297]}},{"type": "Feature","properties": {"marker-color": "#0000CD","marker-size": "medium","name": "Blue Mound", "link": "http://www.wikidata.org/entity/Q2613109"},"geometry": {"type": "Point","coordinates": [-95.0083,38.0903]}},{"type": "Feature","properties": {"marker-color": "#0000CD","marker-size": "medium","name": "Blue Lake", "link": "http://www.wikidata.org/entity/Q2907220"},"geometry": {"type": "Point","coordinates": [-123.983888888,40.882777777]}},{"type": "Feature","properties": {"marker-color": "#0000CD","marker-size": "medium","name": "Blue Sulphur Springs", "link": "http://www.wikidata.org/entity/Q4929933"},"geometry": {"type": "Point","coordinates": [-80.6361,37.825]}},{"type": "Feature","properties": {"marker-color": "#0000CD","marker-size": "medium","name": "Blue Vista", "link": "http://www.wikidata.org/entity/Q4929996"},"geometry": {"type": "Point","coordinates": [-109.083,33.6192]}},{"type": "Feature","properties": {"marker-color": "#0000CD","marker-size": "medium","name": "Bluegras", "link": "http://www.wikidata.org/entity/Q4930318"},"geometry": {"type": "Point","coordinates": [-95.01,46.5428]}},{"type": "Feature","properties": {"marker-color": "#0000CD","marker-size": "medium","name": "Bluegu", "link": "http://www.wikidata.org/entity/Q4930360"},"geometry": {"type": "Point","coordinates": [-122.19333333,39.58361111]}},{"type": "Feature","properties": {"marker-color": "#0000CD","marker-size": "medium","name": "Bluegrov", "link": "http://www.wikidata.org/entity/Q4930362"},"geometry": {"type": "Point","coordinates": [-98.23,33.6739]}},{"type": "Feature","properties": {"marker-color": "#0000CD","marker-size": "medium","name": "Bluehole", "link": "http://www.wikidata.org/entity/Q4930364"},"geometry": {"type": "Point","coordinates": [-83.7564,37.1003]}},{"type": "Feature","properties": {"marker-color": "#0000CD","marker-size": "medium","name": "Blues Beach", "link": "http://www.wikidata.org/entity/Q4930449"},"geometry": {"type": "Point","coordinates": [-78.7153,39.4258]}},{"type": "Feature","properties": {"marker-color": "#0000CD","marker-size": "medium","name": "Bluestone", "link": "http://www.wikidata.org/entity/Q4930574"},"geometry": {"type": "Point","coordinates": [-81.3178,37.3119]}},{"type": "Feature","properties": {"marker-color": "#0000CD","marker-size": "medium","name": "Bluevill", "link": "http://www.wikidata.org/entity/Q4930602"},"geometry": {"type": "Point","coordinates": [-80.0033,39.3461]}},{"type": "Feature","properties": {"marker-color": "#0000CD","marker-size": "medium","name": "Bluewin", "link": "http://www.wikidata.org/entity/Q4930618"},"geometry": {"type": "Point","coordinates": [-85.9917,35.7858]}},{"type": "Feature","properties": {"marker-color": "#0000CD","marker-size": "medium","name": "Blue Lake Junctio", "link": "http://www.wikidata.org/entity/Q4929329"},"geometry": {"type": "Point","coordinates": [-120.33166667,38.25861111]}},{"type": "Feature","properties": {"marker-color": "#0000CD","marker-size": "medium","name": "Blue Lake Spring", "link": "http://www.wikidata.org/entity/Q4929335"},"geometry": {"type": "Point","coordinates": [-120.32416667,38.25972222]}},{"type": "Feature","properties": {"marker-color": "#0000CD","marker-size": "medium","name": "Blue Lick", "link": "http://www.wikidata.org/entity/Q4929349"},"geometry": {"type": "Point","coordinates": [-85.8047,38.5083]}},{"type": "Feature","properties": {"marker-color": "#0000CD","marker-size": "medium","name": "Blue Lick", "link": "http://www.wikidata.org/entity/Q4929352"},"geometry": {"type": "Point","coordinates": [-84.7075,37.4908]}},{"type": "Feature","properties": {"marker-color": "#0000CD","marker-size": "medium","name": "Blue Moon", "link": "http://www.wikidata.org/entity/Q4929447"},"geometry": {"type": "Point","coordinates": [-82.6978,37.5075]}},{"type": "Feature","properties": {"marker-color": "#0000CD","marker-size": "medium","name": "Blue Mountain Lake", "link": "http://www.wikidata.org/entity/Q4929524"},"geometry": {"type": "Point","coordinates": [-74.4376,43.8548]}},{"type": "Feature","properties": {"marker-color": "#0000CD","marker-size": "medium","name": "Blue Pennan", "link": "http://www.wikidata.org/entity/Q4929613"},"geometry": {"type": "Point","coordinates": [-81.5594,37.9708]}},{"type": "Feature","properties": {"marker-color": "#0000CD","marker-size": "medium","name": "Blue Ridge", "link": "http://www.wikidata.org/entity/Q4929687"},"geometry": {"type": "Point","coordinates": [-88.4881,40.2678]}},{"type": "Feature","properties": {"marker-color": "#0000CD","marker-size": "medium","name": "Blue Ridge", "link": "http://www.wikidata.org/entity/Q4929688"},"geometry": {"type": "Point","coordinates": [-85.6356,39.5192]}},{"type": "Feature","properties": {"marker-color": "#0000CD","marker-size": "medium","name": "Blue Ridge Acres", "link": "http://www.wikidata.org/entity/Q4929697"},"geometry": {"type": "Point","coordinates": [-77.7728,39.2861]}},{"type": "Feature","properties": {"marker-color": "#0000CD","marker-size": "medium","name": "Blue Ridge Summit", "link": "http://www.wikidata.org/entity/Q4929752"},"geometry": {"type": "Point","coordinates": [-77.471388888,39.724166666]}},{"type": "Feature","properties": {"marker-color": "#0000CD","marker-size": "medium","name": "Blue Roc", "link": "http://www.wikidata.org/entity/Q4929790"},"geometry": {"type": "Point","coordinates": [-81.8914,39.8]}},{"type": "Feature","properties": {"marker-color": "#0000CD","marker-size": "medium","name": "Blue Rock Mano", "link": "http://www.wikidata.org/entity/Q4929793"},"geometry": {"type": "Point","coordinates": [-75.5261,39.7958]}},{"type": "Feature","properties": {"marker-color": "#0000CD","marker-size": "medium","name": "Blue Springs Villag", "link": "http://www.wikidata.org/entity/Q4929905"},"geometry": {"type": "Point","coordinates": [-94.0156,36.175]}},{"type": "Feature","properties": {"marker-color": "#0000CD","marker-size": "medium","name": "Blue Clay Farms", "link": "http://www.wikidata.org/entity/Q5676251"},"geometry": {"type": "Point","coordinates": [-77.8915,34.2988]}},{"type": "Feature","properties": {"marker-color": "#0000CD","marker-size": "medium","name": "Bayou Blue", "link": "http://www.wikidata.org/entity/Q5723789"},"geometry": {"type": "Point","coordinates": [-90.6689,29.6325]}},{"type": "Feature","properties": {"marker-color": "#0000CD","marker-size": "medium","name": "Upper Blue Licks", "link": "http://www.wikidata.org/entity/Q7898500"},"geometry": {"type": "Point","coordinates": [-83.8567,38.3319]}},{"type": "Feature","properties": {"marker-color": "#0000CD","marker-size": "medium","name": "Blue Ball", "link": "http://www.wikidata.org/entity/Q4928849"},"geometry": {"type": "Point","coordinates": [-84.336388888,39.493333333]}},{"type": "Feature","properties": {"marker-color": "#0000CD","marker-size": "medium","name": "Blue Hills", "link": "http://www.wikidata.org/entity/Q4929233"},"geometry": {"type": "Point","coordinates": [-94.5599,39.0317]}},{"type": "Feature","properties": {"marker-color": "#0000CD","marker-size": "medium","name": "Blue Quil", "link": "http://www.wikidata.org/entity/Q4929648"},"geometry": {"type": "Point","coordinates": [-113.527,53.457]}},{"type": "Feature","properties": {"marker-color": "#0000CD","marker-size": "medium","name": "Blue Quill Estate", "link": "http://www.wikidata.org/entity/Q4929649"},"geometry": {"type": "Point","coordinates": [-113.541,53.458]}},{"type": "Feature","properties": {"marker-color": "#0000CD","marker-size": "medium","name": "Blue Ridge", "link": "http://www.wikidata.org/entity/Q4929686"},"geometry": {"type": "Point","coordinates": [-95.48,29.6]}},{"type": "Feature","properties": {"marker-color": "#0000CD","marker-size": "medium","name": "Blue Ridge", "link": "http://www.wikidata.org/entity/Q4929689"},"geometry": {"type": "Point","coordinates": [-122.378,47.7029]}},{"type": "Feature","properties": {"marker-color": "#0000CD","marker-size": "medium","name": "Blue Level", "link": "http://www.wikidata.org/entity/Q14690125"},"geometry": {"type": "Point","coordinates": [-86.5411,36.9775]}},{"type": "Feature","properties": {"marker-color": "#0000CD","marker-size": "medium","name": "Blue Pond", "link": "http://www.wikidata.org/entity/Q14690127"},"geometry": {"type": "Point","coordinates": [-89.2569,36.5283]}},{"type": "Feature","properties": {"marker-color": "#0000CD","marker-size": "medium","name": "The Blue Mu", "link": "http://www.wikidata.org/entity/Q14691329"},"geometry": {"type": "Point","coordinates": [-85.0033,36.6353]}},{"type": "Feature","properties": {"marker-color": "#0000CD","marker-size": "medium","name": "Bluewater", "link": "http://www.wikidata.org/entity/Q14705946"},"geometry": {"type": "Point","coordinates": [-105.186,33.5578]}},{"type": "Feature","properties": {"marker-color": "#0000CD","marker-size": "medium","name": "Blueberry", "link": "http://www.wikidata.org/entity/Q14714412"},"geometry": {"type": "Point","coordinates": [-91.6689,46.5803]}},{"type": "Feature","properties": {"marker-color": "#0000CD","marker-size": "medium","name": "Blue Rive", "link": "http://www.wikidata.org/entity/Q17510571"},"geometry": {"type": "Point","coordinates": [-82.8439,37.6192]}},{"type": "Feature","properties": {"marker-color": "#0000CD","marker-size": "medium","name": "Blues Old Stan", "link": "http://www.wikidata.org/entity/Q17510598"},"geometry": {"type": "Point","coordinates": [-85.7169,31.985]}},{"type": "Feature","properties": {"marker-color": "#0000CD","marker-size": "medium","name": "Blue Pond", "link": "http://www.wikidata.org/entity/Q19867688"},"geometry": {"type": "Point","coordinates": [-85.7203,34.2369]}},{"type": "Feature","properties": {"marker-color": "#0000CD","marker-size": "medium","name": "Blue Bell", "link": "http://www.wikidata.org/entity/Q22307897"},"geometry": {"type": "Point","coordinates": [-103.4824157,43.7166527]}},{"type": "Feature","properties": {"marker-color": "#0000CD","marker-size": "medium","name": "Blue Ban", "link": "http://www.wikidata.org/entity/Q24882720"},"geometry": {"type": "Point","coordinates": [-89.425,36.352]}},{"type": "Feature","properties": {"marker-color": "#0000CD","marker-size": "medium","name": "Blue Rive", "link": "http://www.wikidata.org/entity/Q25199026"},"geometry": {"type": "Point","coordinates": [-85.93944444,38.53]}},{"type": "Feature","properties": {"marker-color": "#0000CD","marker-size": "medium","name": "Blue Mill", "link": "http://www.wikidata.org/entity/Q27985393"},"geometry": {"type": "Point","coordinates": [-94.30305556,39.14944444]}},{"type": "Feature","properties": {"marker-color": "#0000CD","marker-size": "medium","name": "Blue Ridg", "link": "http://www.wikidata.org/entity/Q27985232"},"geometry": {"type": "Point","coordinates": [-93.93555556,40.19222222]}},{"type": "Feature","properties": {"marker-color": "#0000CD","marker-size": "medium","name": "Blue Canyo", "link": "http://www.wikidata.org/entity/Q27988902"},"geometry": {"type": "Point","coordinates": [-122.2775,48.68222222]}},{"type": "Feature","properties": {"marker-color": "#0000CD","marker-size": "medium","name": "Blueslid", "link": "http://www.wikidata.org/entity/Q27988904"},"geometry": {"type": "Point","coordinates": [-117.34583333,48.55638889]}},{"type": "Feature","properties": {"marker-color": "#0000CD","marker-size": "medium","name": "Blueste", "link": "http://www.wikidata.org/entity/Q27988906"},"geometry": {"type": "Point","coordinates": [-118.12666667,47.525]}},{"type": "Feature","properties": {"marker-color": "#0000CD","marker-size": "medium","name": "Blue Lic", "link": "http://www.wikidata.org/entity/Q28054299"},"geometry": {"type": "Point","coordinates": [-93.21027778,39.01333333]}},{"type": "Feature","properties": {"marker-color": "#0000CD","marker-size": "medium","name": "Blue Crane Route Local Municipality", "link": "http://www.wikidata.org/entity/Q885667"},"geometry": {"type": "Point","coordinates": [25.41309,-32.77816]}},{"type": "Feature","properties": {"marker-color": "#0000CD","marker-size": "medium","name": "Blue Crane Route Local Municipality", "link": "http://www.wikidata.org/entity/Q885667"},"geometry": {"type": "Point","coordinates": [25.5833,-32.7167]}},{"type": "Feature","properties": {"marker-color": "#0000CD","marker-size": "medium","name": "Blue Plains", "link": "http://www.wikidata.org/entity/Q16843460"},"geometry": {"type": "Point","coordinates": [-77.0247,38.8156]}},{"type": "Feature","properties": {"marker-color": "#0000CD","marker-size": "medium","name": "Blue Ancho", "link": "http://www.wikidata.org/entity/Q4928824"},"geometry": {"type": "Point","coordinates": [-4.9397,50.3838]}},{"type": "Feature","properties": {"marker-color": "#0000CD","marker-size": "medium","name": "Blue Anchor", "link": "http://www.wikidata.org/entity/Q4928825"},"geometry": {"type": "Point","coordinates": [-3.3993,51.181]}},{"type": "Feature","properties": {"marker-color": "#0000CD","marker-size": "medium","name": "Blue Bell Hill", "link": "http://www.wikidata.org/entity/Q4928868"},"geometry": {"type": "Point","coordinates": [0.504,51.3304]}},{"type": "Feature","properties": {"marker-color": "#0000CD","marker-size": "medium","name": "Blueston", "link": "http://www.wikidata.org/entity/Q4930576"},"geometry": {"type": "Point","coordinates": [-4.801,51.783]}},{"type": "Feature","properties": {"marker-color": "#0000CD","marker-size": "medium","name": "Blue Bell", "link": "http://www.wikidata.org/entity/Q885631"},"geometry": {"type": "Point","coordinates": [-75.2689,40.1447]}},{"type": "Feature","properties": {"marker-color": "#0000CD","marker-size": "medium","name": "Blue Mounds (town)", "link": "http://www.wikidata.org/entity/Q4929484"},"geometry": {"type": "Point","coordinates": [-89.78,42.995277777]}},{"type": "Feature","properties": {"marker-color": "#0000CD","marker-size": "medium","name": "Blue Mound Township", "link": "http://www.wikidata.org/entity/Q4929482"},"geometry": {"type": "Point","coordinates": [-89.083333333,39.766666666]}},{"type": "Feature","properties": {"marker-color": "#0000CD","marker-size": "medium","name": "Blue Ridge Township", "link": "http://www.wikidata.org/entity/Q4929753"},"geometry": {"type": "Point","coordinates": [-88.545,40.221666666]}},{"type": "Feature","properties": {"marker-color": "#0000CD","marker-size": "medium","name": "Blue Creek Township", "link": "http://www.wikidata.org/entity/Q4929016"},"geometry": {"type": "Point","coordinates": [-84.62,41.021666666]}},{"type": "Feature","properties": {"marker-color": "#0000CD","marker-size": "medium","name": "Blue Rock Township", "link": "http://www.wikidata.org/entity/Q4929802"},"geometry": {"type": "Point","coordinates": [-81.850833333,39.813055555]}},{"type": "Feature","properties": {"marker-color": "#0000CD","marker-size": "medium","name": "Blue Mound Township", "link": "http://www.wikidata.org/entity/Q8004120"},"geometry": {"type": "Point","coordinates": [-88.751666666,40.531944444]}},{"type": "Feature","properties": {"marker-color": "#0000CD","marker-size": "medium","name": "Blue Creek Township", "link": "http://www.wikidata.org/entity/Q4929014"},"geometry": {"type": "Point","coordinates": [-84.836666666,40.699722222]}},{"type": "Feature","properties": {"marker-color": "#0000CD","marker-size": "medium","name": "Blue River Township", "link": "http://www.wikidata.org/entity/Q4929779"},"geometry": {"type": "Point","coordinates": [-85.678055555,39.744722222]}},{"type": "Feature","properties": {"marker-color": "#0000CD","marker-size": "medium","name": "Blue River Township", "link": "http://www.wikidata.org/entity/Q4929783"},"geometry": {"type": "Point","coordinates": [-86.213888888,38.377777777]}},{"type": "Feature","properties": {"marker-color": "#0000CD","marker-size": "medium","name": "Blue River Township", "link": "http://www.wikidata.org/entity/Q4929785"},"geometry": {"type": "Point","coordinates": [-85.256944444,39.990277777]}},{"type": "Feature","properties": {"marker-color": "#0000CD","marker-size": "medium","name": "Blue River Township", "link": "http://www.wikidata.org/entity/Q4929787"},"geometry": {"type": "Point","coordinates": [-85.991666666,39.390555555]}},{"type": "Feature","properties": {"marker-color": "#0000CD","marker-size": "medium","name": "Blue Grass Township", "link": "http://www.wikidata.org/entity/Q4929160"},"geometry": {"type": "Point","coordinates": [-90.716666666,41.555277777]}},{"type": "Feature","properties": {"marker-color": "#0000CD","marker-size": "medium","name": "Blue Mound Township", "link": "http://www.wikidata.org/entity/Q10740396"},"geometry": {"type": "Point","coordinates": [-95.0056,38.0953]}},{"type": "Feature","properties": {"marker-color": "#0000CD","marker-size": "medium","name": "Blue Township", "link": "http://www.wikidata.org/entity/Q9036614"},"geometry": {"type": "Point","coordinates": [-96.5278,39.2783]}},{"type": "Feature","properties": {"marker-color": "#0000CD","marker-size": "medium","name": "Blue Hill Township", "link": "http://www.wikidata.org/entity/Q9036628"},"geometry": {"type": "Point","coordinates": [-98.3292,39.2564]}},{"type": "Feature","properties": {"marker-color": "#0000CD","marker-size": "medium","name": "Blue Rapids Township", "link": "http://www.wikidata.org/entity/Q9036639"},"geometry": {"type": "Point","coordinates": [-96.6347,39.6108]}},{"type": "Feature","properties": {"marker-color": "#0000CD","marker-size": "medium","name": "Blue Rapids City Township", "link": "http://www.wikidata.org/entity/Q9036640"},"geometry": {"type": "Point","coordinates": [-96.6375,39.7003]}},{"type": "Feature","properties": {"marker-color": "#0000CD","marker-size": "medium","name": "Blue Valley Township", "link": "http://www.wikidata.org/entity/Q9036647"},"geometry": {"type": "Point","coordinates": [-96.6428,39.4558]}},{"type": "Feature","properties": {"marker-color": "#0000CD","marker-size": "medium","name": "Little Blue Township", "link": "http://www.wikidata.org/entity/Q10786457"},"geometry": {"type": "Point","coordinates": [-96.8628,39.7803]}},{"type": "Feature","properties": {"marker-color": "#0000CD","marker-size": "medium","name": "Blue Lake Township", "link": "http://www.wikidata.org/entity/Q4929340"},"geometry": {"type": "Point","coordinates": [-84.9003,44.8192]}},{"type": "Feature","properties": {"marker-color": "#0000CD","marker-size": "medium","name": "Blue Lake Township", "link": "http://www.wikidata.org/entity/Q4929341"},"geometry": {"type": "Point","coordinates": [-86.2189,43.4283]}},{"type": "Feature","properties": {"marker-color": "#0000CD","marker-size": "medium","name": "Blue Earth City Township", "link": "http://www.wikidata.org/entity/Q1897346"},"geometry": {"type": "Point","coordinates": [-94.073333333,43.634444444]}},{"type": "Feature","properties": {"marker-color": "#0000CD","marker-size": "medium","name": "Blueberry Township", "link": "http://www.wikidata.org/entity/Q1897370"},"geometry": {"type": "Point","coordinates": [-95.096666666,46.770277777]}},{"type": "Feature","properties": {"marker-color": "#0000CD","marker-size": "medium","name": "Blue Mounds Township", "link": "http://www.wikidata.org/entity/Q1897434"},"geometry": {"type": "Point","coordinates": [-95.560555555,45.546388888]}},{"type": "Feature","properties": {"marker-color": "#0000CD","marker-size": "medium","name": "Blue Hill Township", "link": "http://www.wikidata.org/entity/Q1897461"},"geometry": {"type": "Point","coordinates": [-93.689166666,45.512777777]}},{"type": "Feature","properties": {"marker-color": "#0000CD","marker-size": "medium","name": "Blue Eye", "link": "http://www.wikidata.org/entity/Q956586"},"geometry": {"type": "Point","coordinates": [-93.396666666,36.5]}},{"type": "Feature","properties": {"marker-color": "#0000CD","marker-size": "medium","name": "Blue Mound", "link": "http://www.wikidata.org/entity/Q2389818"},"geometry": {"type": "Point","coordinates": [-89.1219,39.6997]}},{"type": "Feature","properties": {"marker-color": "#0000CD","marker-size": "medium","name": "Blue Springs", "link": "http://www.wikidata.org/entity/Q2400300"},"geometry": {"type": "Point","coordinates": [-88.8728,34.4031]}},{"type": "Feature","properties": {"marker-color": "#0000CD","marker-size": "medium","name": "Blue River", "link": "http://www.wikidata.org/entity/Q1990305"},"geometry": {"type": "Point","coordinates": [-90.57,43.1869]}},{"type": "Feature","properties": {"marker-color": "#0000CD","marker-size": "medium","name": "Ginger Blue", "link": "http://www.wikidata.org/entity/Q3459614"},"geometry": {"type": "Point","coordinates": [-94.460833333,36.588611111]}},{"type": "Feature","properties": {"marker-color": "#0000CD","marker-size": "medium","name": "Blue Mounds", "link": "http://www.wikidata.org/entity/Q2671310"},"geometry": {"type": "Point","coordinates": [-89.830555555,43.016666666]}},{"type": "Feature","properties": {"marker-color": "#0000CD","marker-size": "medium","name": "Blue Lake Rancheria", "link": "http://www.wikidata.org/entity/Q4929333"},"geometry": {"type": "Point","coordinates": [-124.0,40.8836]}},{"type": "Feature","properties": {"marker-color": "#0000CD","marker-size": "medium","name": "Blue Creek", "link": "http://www.wikidata.org/entity/Q4929004"},"geometry": {"type": "Point","coordinates": [-112.456944444,41.862222222]}},{"type": "Feature","properties": {"marker-color": "#0000CD","marker-size": "medium","name": "Blue Jay", "link": "http://www.wikidata.org/entity/Q885742"},"geometry": {"type": "Point","coordinates": [-117.208888888,34.246111111]}},{"type": "Feature","properties": {"marker-color": "#0000CD","marker-size": "medium","name": "Blue Mountain", "link": "http://www.wikidata.org/entity/Q885795"},"geometry": {"type": "Point","coordinates": [-85.8375,33.68861]}},{"type": "Feature","properties": {"marker-color": "#0000CD","marker-size": "medium","name": "Bluemont", "link": "http://www.wikidata.org/entity/Q886003"},"geometry": {"type": "Point","coordinates": [-77.8339,39.1111]}},{"type": "Feature","properties": {"marker-color": "#0000CD","marker-size": "medium","name": "Blue Hill", "link": "http://www.wikidata.org/entity/Q4929232"},"geometry": {"type": "Point","coordinates": [28.0844,-25.9492]}},{"type": "Feature","properties": {"marker-color": "#0000CD","marker-size": "medium","name": "Blue Rocks", "link": "http://www.wikidata.org/entity/Q4929801"},"geometry": {"type": "Point","coordinates": [147.953,-40.0578]}},{"type": "Feature","properties": {"marker-color": "#0000CD","marker-size": "medium","name": "Bluewater", "link": "http://www.wikidata.org/entity/Q4864429"},"geometry": {"type": "Point","coordinates": [-81.6,43.45]}},{"type": "Feature","properties": {"marker-color": "#0000CD","marker-size": "medium","name": "The Blue Mountains", "link": "http://www.wikidata.org/entity/Q4864447"},"geometry": {"type": "Point","coordinates": [-80.3833,44.4833]}},{"type": "Feature","properties": {"marker-color": "#0000CD","marker-size": "medium","name": "Blue Bay", "link": "http://www.wikidata.org/entity/Q4928859"},"geometry": {"type": "Point","coordinates": [151.501,-33.353]}},{"type": "Feature","properties": {"marker-color": "#0000CD","marker-size": "medium","name": "Bluewater", "link": "http://www.wikidata.org/entity/Q4930606"},"geometry": {"type": "Point","coordinates": [146.55,-19.1744]}},{"type": "Feature","properties": {"marker-color": "#0000CD","marker-size": "medium","name": "Bluewater Park", "link": "http://www.wikidata.org/entity/Q4930614"},"geometry": {"type": "Point","coordinates": [146.511,-19.2108]}},{"type": "Feature","properties": {"marker-color": "#0000CD","marker-size": "medium","name": "Blue Eye", "link": "http://www.wikidata.org/entity/Q2619072"},"geometry": {"type": "Point","coordinates": [-93.397777777,36.496111111]}},{"type": "Feature","properties": {"marker-color": "#0000CD","marker-size": "medium","name": "Blue River", "link": "http://www.wikidata.org/entity/Q3474050"},"geometry": {"type": "Point","coordinates": [-122.34,44.154722222]}},{"type": "Feature","properties": {"marker-color": "#0000CD","marker-size": "medium","name": "Blue Summi", "link": "http://www.wikidata.org/entity/Q3471750"},"geometry": {"type": "Point","coordinates": [-94.481,39.087]}},{"type": "Feature","properties": {"marker-color": "#0000CD","marker-size": "medium","name": "Blue Ball", "link": "http://www.wikidata.org/entity/Q3960047"},"geometry": {"type": "Point","coordinates": [-76.047222222,40.118611111]}},{"type": "Feature","properties": {"marker-color": "#0000CD","marker-size": "medium","name": "Blue's Mill", "link": "http://www.wikidata.org/entity/Q4928694"},"geometry": {"type": "Point","coordinates": [-61.1794,45.933]}},{"type": "Feature","properties": {"marker-color": "#0000CD","marker-size": "medium","name": "Blue", "link": "http://www.wikidata.org/entity/Q4928700"},"geometry": {"type": "Point","coordinates": [-109.107,33.6101]}},{"type": "Feature","properties": {"marker-color": "#0000CD","marker-size": "medium","name": "Blu", "link": "http://www.wikidata.org/entity/Q4928702"},"geometry": {"type": "Point","coordinates": [-80.8253,39.4475]}},{"type": "Feature","properties": {"marker-color": "#0000CD","marker-size": "medium","name": "Blue Anchor", "link": "http://www.wikidata.org/entity/Q4928821"},"geometry": {"type": "Point","coordinates": [-74.8828,39.6894]}},{"type": "Feature","properties": {"marker-color": "#0000CD","marker-size": "medium","name": "Blue Bal", "link": "http://www.wikidata.org/entity/Q4928848"},"geometry": {"type": "Point","coordinates": [-75.5447,39.7772]}},{"type": "Feature","properties": {"marker-color": "#0000CD","marker-size": "medium","name": "Blue Ben", "link": "http://www.wikidata.org/entity/Q4928871"},"geometry": {"type": "Point","coordinates": [-80.2686,37.9217]}},{"type": "Feature","properties": {"marker-color": "#0000CD","marker-size": "medium","name": "Blue Branc", "link": "http://www.wikidata.org/entity/Q4928922"},"geometry": {"type": "Point","coordinates": [-93.3572,38.2356]}},{"type": "Feature","properties": {"marker-color": "#0000CD","marker-size": "medium","name": "Blue Canyo", "link": "http://www.wikidata.org/entity/Q4928940"},"geometry": {"type": "Point","coordinates": [-120.711,39.2572]}},{"type": "Feature","properties": {"marker-color": "#0000CD","marker-size": "medium","name": "Blue Cov", "link": "http://www.wikidata.org/entity/Q4929002"},"geometry": {"type": "Point","coordinates": [-56.868,51.098]}},{"type": "Feature","properties": {"marker-color": "#0000CD","marker-size": "medium","name": "Blue Cree", "link": "http://www.wikidata.org/entity/Q4929006"},"geometry": {"type": "Point","coordinates": [-83.3303,38.7775]}},{"type": "Feature","properties": {"marker-color": "#0000CD","marker-size": "medium","name": "Blue Creek", "link": "http://www.wikidata.org/entity/Q4929008"},"geometry": {"type": "Point","coordinates": [-81.4572,38.4506]}},{"type": "Feature","properties": {"marker-color": "#0000CD","marker-size": "medium","name": "Blue Diamond", "link": "http://www.wikidata.org/entity/Q4929051"},"geometry": {"type": "Point","coordinates": [-83.2158,37.3078]}},{"type": "Feature","properties": {"marker-color": "#0000CD","marker-size": "medium","name": "Blue Gap", "link": "http://www.wikidata.org/entity/Q4929134"},"geometry": {"type": "Point","coordinates": [-109.946,36.1708]}},{"type": "Feature","properties": {"marker-color": "#0000CD","marker-size": "medium","name": "Blue Grass", "link": "http://www.wikidata.org/entity/Q4929148"},"geometry": {"type": "Point","coordinates": [-79.5497,38.5]}},{"type": "Feature","properties": {"marker-color": "#0000CD","marker-size": "medium","name": "Blue Hole", "link": "http://www.wikidata.org/entity/Q4929243"},"geometry": {"type": "Point","coordinates": [-84.8019,36.71]}},{"type": "Feature","properties": {"marker-color": "#0000CD","marker-size": "medium","name": "Blue Jay", "link": "http://www.wikidata.org/entity/Q4929280"},"geometry": {"type": "Point","coordinates": [-81.1378,37.7369]}},{"type": "Feature","properties": {"marker-color": "#0000CD","marker-size": "medium","name": "Blue Jay ", "link": "http://www.wikidata.org/entity/Q4929281"},"geometry": {"type": "Point","coordinates": [-81.1133,37.6828]}},{"type": "Feature","properties": {"marker-color": "#0000CD","marker-size": "medium","name": "Blue John", "link": "http://www.wikidata.org/entity/Q4929297"},"geometry": {"type": "Point","coordinates": [-84.4831,36.9297]}},{"type": "Feature","properties": {"marker-color": "#0000CD","marker-size": "medium","name": "Blue Lake Junctio", "link": "http://www.wikidata.org/entity/Q4929329"},"geometry": {"type": "Point","coordinates": [-120.33166667,38.25861111]}},{"type": "Feature","properties": {"marker-color": "#0000CD","marker-size": "medium","name": "Blue Lake Spring", "link": "http://www.wikidata.org/entity/Q4929335"},"geometry": {"type": "Point","coordinates": [-120.32416667,38.25972222]}},{"type": "Feature","properties": {"marker-color": "#0000CD","marker-size": "medium","name": "Blue Lake Township", "link": "http://www.wikidata.org/entity/Q4929340"},"geometry": {"type": "Point","coordinates": [-84.9003,44.8192]}},{"type": "Feature","properties": {"marker-color": "#0000CD","marker-size": "medium","name": "Blue Lake Township", "link": "http://www.wikidata.org/entity/Q4929341"},"geometry": {"type": "Point","coordinates": [-86.2189,43.4283]}},{"type": "Feature","properties": {"marker-color": "#0000CD","marker-size": "medium","name": "Blue Lick", "link": "http://www.wikidata.org/entity/Q4929349"},"geometry": {"type": "Point","coordinates": [-85.8047,38.5083]}},{"type": "Feature","properties": {"marker-color": "#0000CD","marker-size": "medium","name": "Blue Lick", "link": "http://www.wikidata.org/entity/Q4929352"},"geometry": {"type": "Point","coordinates": [-84.7075,37.4908]}},{"type": "Feature","properties": {"marker-color": "#0000CD","marker-size": "medium","name": "Blue Moon", "link": "http://www.wikidata.org/entity/Q4929447"},"geometry": {"type": "Point","coordinates": [-82.6978,37.5075]}},{"type": "Feature","properties": {"marker-color": "#0000CD","marker-size": "medium","name": "Blue Mound Township", "link": "http://www.wikidata.org/entity/Q4929482"},"geometry": {"type": "Point","coordinates": [-89.083333333,39.766666666]}},{"type": "Feature","properties": {"marker-color": "#0000CD","marker-size": "medium","name": "Blue Mountai", "link": "http://www.wikidata.org/entity/Q4929486"},"geometry": {"type": "Point","coordinates": [-64.5331,44.8844]}},{"type": "Feature","properties": {"marker-color": "#0000CD","marker-size": "medium","name": "Blue Mountai", "link": "http://www.wikidata.org/entity/Q4929488"},"geometry": {"type": "Point","coordinates": [-62.4417,45.485]}},{"type": "Feature","properties": {"marker-color": "#0000CD","marker-size": "medium","name": "Blue Mountain Lake", "link": "http://www.wikidata.org/entity/Q4929524"},"geometry": {"type": "Point","coordinates": [-74.4376,43.8548]}},{"type": "Feature","properties": {"marker-color": "#0000CD","marker-size": "medium","name": "Blue Pennan", "link": "http://www.wikidata.org/entity/Q4929613"},"geometry": {"type": "Point","coordinates": [-81.5594,37.9708]}},{"type": "Feature","properties": {"marker-color": "#0000CD","marker-size": "medium","name": "Blue Ridge", "link": "http://www.wikidata.org/entity/Q4929687"},"geometry": {"type": "Point","coordinates": [-88.4881,40.2678]}},{"type": "Feature","properties": {"marker-color": "#0000CD","marker-size": "medium","name": "Blue Ridge Acres", "link": "http://www.wikidata.org/entity/Q4929697"},"geometry": {"type": "Point","coordinates": [-77.7728,39.2861]}},{"type": "Feature","properties": {"marker-color": "#0000CD","marker-size": "medium","name": "Blue Ridge Township", "link": "http://www.wikidata.org/entity/Q4929753"},"geometry": {"type": "Point","coordinates": [-88.545,40.221666666]}},{"type": "Feature","properties": {"marker-color": "#0000CD","marker-size": "medium","name": "Blue Rive", "link": "http://www.wikidata.org/entity/Q4929759"},"geometry": {"type": "Point","coordinates": [-119.3,52.1]}},{"type": "Feature","properties": {"marker-color": "#0000CD","marker-size": "medium","name": "Blue Roc", "link": "http://www.wikidata.org/entity/Q4929790"},"geometry": {"type": "Point","coordinates": [-81.8914,39.8]}},{"type": "Feature","properties": {"marker-color": "#0000CD","marker-size": "medium","name": "Blue Rock Mano", "link": "http://www.wikidata.org/entity/Q4929793"},"geometry": {"type": "Point","coordinates": [-75.5261,39.7958]}},{"type": "Feature","properties": {"marker-color": "#0000CD","marker-size": "medium","name": "Blue Springs Villag", "link": "http://www.wikidata.org/entity/Q4929905"},"geometry": {"type": "Point","coordinates": [-94.0156,36.175]}},{"type": "Feature","properties": {"marker-color": "#0000CD","marker-size": "medium","name": "Blue Sulphur Springs", "link": "http://www.wikidata.org/entity/Q4929933"},"geometry": {"type": "Point","coordinates": [-80.6361,37.825]}},{"type": "Feature","properties": {"marker-color": "#0000CD","marker-size": "medium","name": "Blue Tent", "link": "http://www.wikidata.org/entity/Q4929945"},"geometry": {"type": "Point","coordinates": [-120.9725,39.310277777]}},{"type": "Feature","properties": {"marker-color": "#0000CD","marker-size": "medium","name": "Blue Town", "link": "http://www.wikidata.org/entity/Q4929958"},"geometry": {"type": "Point","coordinates": [0.75,51.4417]}},{"type": "Feature","properties": {"marker-color": "#0000CD","marker-size": "medium","name": "Blue Vista", "link": "http://www.wikidata.org/entity/Q4929996"},"geometry": {"type": "Point","coordinates": [-109.083,33.6192]}},{"type": "Feature","properties": {"marker-color": "#0000CD","marker-size": "medium","name": "Blueberry Mountai", "link": "http://www.wikidata.org/entity/Q4930229"},"geometry": {"type": "Point","coordinates": [-119.15,55.9267]}},{"type": "Feature","properties": {"marker-color": "#0000CD","marker-size": "medium","name": "Bluegras", "link": "http://www.wikidata.org/entity/Q4930318"},"geometry": {"type": "Point","coordinates": [-95.01,46.5428]}},{"type": "Feature","properties": {"marker-color": "#0000CD","marker-size": "medium","name": "Bluegu", "link": "http://www.wikidata.org/entity/Q4930360"},"geometry": {"type": "Point","coordinates": [-122.19333333,39.58361111]}},{"type": "Feature","properties": {"marker-color": "#0000CD","marker-size": "medium","name": "Bluegrov", "link": "http://www.wikidata.org/entity/Q4930362"},"geometry": {"type": "Point","coordinates": [-98.23,33.6739]}},{"type": "Feature","properties": {"marker-color": "#0000CD","marker-size": "medium","name": "Bluehole", "link": "http://www.wikidata.org/entity/Q4930364"},"geometry": {"type": "Point","coordinates": [-83.7564,37.1003]}},{"type": "Feature","properties": {"marker-color": "#0000CD","marker-size": "medium","name": "Blues Beach", "link": "http://www.wikidata.org/entity/Q4930449"},"geometry": {"type": "Point","coordinates": [-78.7153,39.4258]}},{"type": "Feature","properties": {"marker-color": "#0000CD","marker-size": "medium","name": "Bluestone", "link": "http://www.wikidata.org/entity/Q4930574"},"geometry": {"type": "Point","coordinates": [-81.3178,37.3119]}},{"type": "Feature","properties": {"marker-color": "#0000CD","marker-size": "medium","name": "Bluevill", "link": "http://www.wikidata.org/entity/Q4930602"},"geometry": {"type": "Point","coordinates": [-80.0033,39.3461]}},{"type": "Feature","properties": {"marker-color": "#0000CD","marker-size": "medium","name": "Bluewin", "link": "http://www.wikidata.org/entity/Q4930618"},"geometry": {"type": "Point","coordinates": [-85.9917,35.7858]}},{"type": "Feature","properties": {"marker-color": "#0000CD","marker-size": "medium","name": "Bonny Blu", "link": "http://www.wikidata.org/entity/Q4942483"},"geometry": {"type": "Point","coordinates": [-83.0683,36.8269]}},{"type": "Feature","properties": {"marker-color": "#0000CD","marker-size": "medium","name": "Bluebird Township", "link": "http://www.wikidata.org/entity/Q5691501"},"geometry": {"type": "Point","coordinates": [-98.8483,46.4997]}},{"type": "Feature","properties": {"marker-color": "#0000CD","marker-size": "medium","name": "Blue Hill Township", "link": "http://www.wikidata.org/entity/Q6027413"},"geometry": {"type": "Point","coordinates": [-101.67,47.79]}},{"type": "Feature","properties": {"marker-color": "#0000CD","marker-size": "medium","name": "Blue Ridge Township", "link": "http://www.wikidata.org/entity/Q6027416"},"geometry": {"type": "Point","coordinates": [-82.3751,35.3287]}},{"type": "Feature","properties": {"marker-color": "#0000CD","marker-size": "medium","name": "Blue Springs Township", "link": "http://www.wikidata.org/entity/Q6027421"},"geometry": {"type": "Point","coordinates": [-79.2911,34.9493]}},{"type": "Feature","properties": {"marker-color": "#0000CD","marker-size": "medium","name": "Blue Ridge Township", "link": "http://www.wikidata.org/entity/Q9036646"},"geometry": {"type": "Point","coordinates": [-81.6262,36.1593]}},{"type": "Feature","properties": {"marker-color": "#0000CD","marker-size": "medium","name": "Blue Butte Township", "link": "http://www.wikidata.org/entity/Q9036617"},"geometry": {"type": "Point","coordinates": [-102.953,47.8867]}},{"type": "Feature","properties": {"marker-color": "#0000CD","marker-size": "medium","name": "Blue Mound Township", "link": "http://www.wikidata.org/entity/Q9036633"},"geometry": {"type": "Point","coordinates": [-94.2214,37.9892]}},{"type": "Feature","properties": {"marker-color": "#0000CD","marker-size": "medium","name": "Blue Ridge Township", "link": "http://www.wikidata.org/entity/Q9036644"},"geometry": {"type": "Point","coordinates": [-103.59,48.5858]}},{"type": "Feature","properties": {"marker-color": "#0000CD","marker-size": "medium","name": "Blue Mound Township", "link": "http://www.wikidata.org/entity/Q8004120"},"geometry": {"type": "Point","coordinates": [-88.751666666,40.531944444]}},{"type": "Feature","properties": {"marker-color": "#0000CD","marker-size": "medium","name": "Bluefield", "link": "http://www.wikidata.org/entity/Q1376715"},"geometry": {"type": "Point","coordinates": [-81.275,37.2442]}},{"type": "Feature","properties": {"marker-color": "#0000CD","marker-size": "medium","name": "Blue Hill", "link": "http://www.wikidata.org/entity/Q142486"},"geometry": {"type": "Point","coordinates": [-68.5867,44.4139]}},{"type": "Feature","properties": {"marker-color": "#0000CD","marker-size": "medium","name": "Blue Springs", "link": "http://www.wikidata.org/entity/Q68271"},"geometry": {"type": "Point","coordinates": [-85.495919,31.66433]}},{"type": "Feature","properties": {"marker-color": "#0000CD","marker-size": "medium","name": "Blue River", "link": "http://www.wikidata.org/entity/Q2264851"},"geometry": {"type": "Point","coordinates": [-106.04391,39.42971]}},{"type": "Feature","properties": {"marker-color": "#0000CD","marker-size": "medium","name": "Blue River", "link": "http://www.wikidata.org/entity/Q2264851"},"geometry": {"type": "Point","coordinates": [-106.037,39.4325]}},{"type": "Feature","properties": {"marker-color": "#0000CD","marker-size": "medium","name": "Blue Mountain", "link": "http://www.wikidata.org/entity/Q2310749"},"geometry": {"type": "Point","coordinates": [-89.028611111,34.670555555]}},{"type": "Feature","properties": {"marker-color": "#0000CD","marker-size": "medium","name": "Blue Mountain", "link": "http://www.wikidata.org/entity/Q2660579"},"geometry": {"type": "Point","coordinates": [-93.712222222,35.130833333]}},{"type": "Feature","properties": {"marker-color": "#0000CD","marker-size": "medium","name": "Bluejacket", "link": "http://www.wikidata.org/entity/Q2533339"},"geometry": {"type": "Point","coordinates": [-95.073611111,36.800555555]}},{"type": "Feature","properties": {"marker-color": "#0000CD","marker-size": "medium","name": "Bluejacket", "link": "http://www.wikidata.org/entity/Q2533339"},"geometry": {"type": "Point","coordinates": [-95.07108,36.7998]}},{"type": "Feature","properties": {"marker-color": "#0000CD","marker-size": "medium","name": "Blue Lic", "link": "http://www.wikidata.org/entity/Q28054299"},"geometry": {"type": "Point","coordinates": [-93.21027778,39.01333333]}},{"type": "Feature","properties": {"marker-color": "#0000CD","marker-size": "medium","name": "Blue Hill", "link": "http://www.wikidata.org/entity/Q33425238"},"geometry": {"type": "Point","coordinates": [-68.58669,44.41397]}},{"type": "Feature","properties": {"marker-color": "#0000CD","marker-size": "medium","name": "Blue Mountain", "link": "http://www.wikidata.org/entity/Q34702729"},"geometry": {"type": "Point","coordinates": [-93.71158,35.13037]}},{"type": "Feature","properties": {"marker-color": "#0000CD","marker-size": "medium","name": "Blue Mountain", "link": "http://www.wikidata.org/entity/Q34702736"},"geometry": {"type": "Point","coordinates": [-89.02645,34.67093]}},{"type": "Feature","properties": {"marker-color": "#0000CD","marker-size": "medium","name": "Blue Ridge", "link": "http://www.wikidata.org/entity/Q34702849"},"geometry": {"type": "Point","coordinates": [-96.74137,31.27629]}},{"type": "Feature","properties": {"marker-color": "#0000CD","marker-size": "medium","name": "Bluetown", "link": "http://www.wikidata.org/entity/Q34703877"},"geometry": {"type": "Point","coordinates": [-97.82305,26.07424]}},{"type": "Feature","properties": {"marker-color": "#0000CD","marker-size": "medium","name": "Bluetown Colonia", "link": "http://www.wikidata.org/entity/Q34703884"},"geometry": {"type": "Point","coordinates": [-97.82333,26.07036]}},{"type": "Feature","properties": {"marker-color": "#0000CD","marker-size": "medium","name": "Blue Bell", "link": "http://www.wikidata.org/entity/Q885631"},"geometry": {"type": "Point","coordinates": [-75.2689,40.1447]}},{"type": "Feature","properties": {"marker-color": "#0000CD","marker-size": "medium","name": "Bluewater", "link": "http://www.wikidata.org/entity/Q886100"},"geometry": {"type": "Point","coordinates": [-114.272,34.1669]}},{"type": "Feature","properties": {"marker-color": "#0000CD","marker-size": "medium","name": "Blue Berry Hill", "link": "http://www.wikidata.org/entity/Q982150"},"geometry": {"type": "Point","coordinates": [-97.7817,28.3892]}},{"type": "Feature","properties": {"marker-color": "#0000CD","marker-size": "medium","name": "Bluetown-Iglesia Antigua", "link": "http://www.wikidata.org/entity/Q973392"},"geometry": {"type": "Point","coordinates": [-97.825,26.0753]}},{"type": "Feature","properties": {"marker-color": "#0000CD","marker-size": "medium","name": "Blue Diamond", "link": "http://www.wikidata.org/entity/Q1889583"},"geometry": {"type": "Point","coordinates": [-115.403,36.0472]}},{"type": "Feature","properties": {"marker-color": "#0000CD","marker-size": "medium","name": "Bluewell", "link": "http://www.wikidata.org/entity/Q4406494"},"geometry": {"type": "Point","coordinates": [-81.2597,37.3125]}},{"type": "Feature","properties": {"marker-color": "#0000CD","marker-size": "medium","name": "Bluewater", "link": "http://www.wikidata.org/entity/Q3162501"},"geometry": {"type": "Point","coordinates": [-114.25028,34.18]}},{"type": "Feature","properties": {"marker-color": "#0000CD","marker-size": "medium","name": "Blue Ridge", "link": "http://www.wikidata.org/entity/Q1376868"},"geometry": {"type": "Point","coordinates": [-79.8164,37.3719]}},{"type": "Feature","properties": {"marker-color": "#0000CD","marker-size": "medium","name": "Blue Ridge", "link": "http://www.wikidata.org/entity/Q1261683"},"geometry": {"type": "Point","coordinates": [-86.190823,32.486744]}},{"type": "Feature","properties": {"marker-color": "#0000CD","marker-size": "medium","name": "Blue Hills", "link": "http://www.wikidata.org/entity/Q754787"},"geometry": {"type": "Point","coordinates": [-72.6975,41.812777777]}},{"type": "Feature","properties": {"marker-color": "#0000CD","marker-size": "medium","name": "Blue Jay", "link": "http://www.wikidata.org/entity/Q4929279"},"geometry": {"type": "Point","coordinates": [-84.7439,39.2386]}},{"type": "Feature","properties": {"marker-color": "#0000CD","marker-size": "medium","name": "Blue Jay", "link": "http://www.wikidata.org/entity/Q4929279"},"geometry": {"type": "Point","coordinates": [-84.7369,39.2269]}},{"type": "Feature","properties": {"marker-color": "#0000CD","marker-size": "medium","name": "Blue Ridge Shores", "link": "http://www.wikidata.org/entity/Q4929747"},"geometry": {"type": "Point","coordinates": [-78.0208,38.1083]}},{"type": "Feature","properties": {"marker-color": "#0000CD","marker-size": "medium","name": "Blue Ridge Summit", "link": "http://www.wikidata.org/entity/Q4929752"},"geometry": {"type": "Point","coordinates": [-77.471388888,39.724166666]}},{"type": "Feature","properties": {"marker-color": "#0000CD","marker-size": "medium","name": "Bluebell", "link": "http://www.wikidata.org/entity/Q4930200"},"geometry": {"type": "Point","coordinates": [-110.217,40.3594]}},{"type": "Feature","properties": {"marker-color": "#0000CD","marker-size": "medium","name": "Bluewater Village", "link": "http://www.wikidata.org/entity/Q4960822"},"geometry": {"type": "Point","coordinates": [-107.983,35.2272]}},{"type": "Feature","properties": {"marker-color": "#0000CD","marker-size": "medium","name": "Bluewater Village", "link": "http://www.wikidata.org/entity/Q4960822"},"geometry": {"type": "Point","coordinates": [-107.981,35.2381]}},{"type": "Feature","properties": {"marker-color": "#0000CD","marker-size": "medium","name": "Blue Point", "link": "http://www.wikidata.org/entity/Q3460883"},"geometry": {"type": "Point","coordinates": [-73.0344,40.7503]}},{"type": "Feature","properties": {"marker-color": "#0000CD","marker-size": "medium","name": "Bayou Blue", "link": "http://www.wikidata.org/entity/Q5723789"},"geometry": {"type": "Point","coordinates": [-90.6689,29.6325]}},{"type": "Feature","properties": {"marker-color": "#0000CD","marker-size": "medium","name": "Bluetow", "link": "http://www.wikidata.org/entity/Q5730725"},"geometry": {"type": "Point","coordinates": [-97.8183,26.0697]}},{"type": "Feature","properties": {"marker-color": "#0000CD","marker-size": "medium","name": "Bluewater Acres", "link": "http://www.wikidata.org/entity/Q5730728"},"geometry": {"type": "Point","coordinates": [-108.141,35.2631]}},{"type": "Feature","properties": {"marker-color": "#0000CD","marker-size": "medium","name": "Bluewater Acres", "link": "http://www.wikidata.org/entity/Q5730728"},"geometry": {"type": "Point","coordinates": [-108.125,35.2742]}},{"type": "Feature","properties": {"marker-color": "#0000CD","marker-size": "medium","name": "Blue Hill", "link": "http://www.wikidata.org/entity/Q12156172"},"geometry": {"type": "Point","coordinates": [-68.5811,44.3989]}},{"type": "Feature","properties": {"marker-color": "#0000CD","marker-size": "medium","name": "Blue Sky", "link": "http://www.wikidata.org/entity/Q16087778"},"geometry": {"type": "Point","coordinates": [-103.806,40.3]}},{"type": "Feature","properties": {"marker-color": "#0000CD","marker-size": "medium","name": "Blue Sky", "link": "http://www.wikidata.org/entity/Q16087778"},"geometry": {"type": "Point","coordinates": [-103.805,40.3]}},{"type": "Feature","properties": {"marker-color": "#0000CD","marker-size": "medium","name": "Blue Clay Farms", "link": "http://www.wikidata.org/entity/Q5676251"},"geometry": {"type": "Point","coordinates": [-77.8915,34.2988]}},{"type": "Feature","properties": {"marker-color": "#0000CD","marker-size": "medium","name": "Blue Ball", "link": "http://www.wikidata.org/entity/Q3960047"},"geometry": {"type": "Point","coordinates": [-76.047222222,40.118611111]}},{"type": "Feature","properties": {"marker-color": "#0000CD","marker-size": "medium","name": "Blue", "link": "http://www.wikidata.org/entity/Q4120825"},"geometry": {"type": "Point","coordinates": [-96.23,33.9964]}},{"type": "Feature","properties": {"marker-color": "#0000CD","marker-size": "medium","name": "Blue Downs", "link": "http://www.wikidata.org/entity/Q4804351"},"geometry": {"type": "Point","coordinates": [18.6975,-34.0]}},{"type": "Feature","properties": {"marker-color": "#0000CD","marker-size": "medium","name": "Blue Haven", "link": "http://www.wikidata.org/entity/Q4929178"},"geometry": {"type": "Point","coordinates": [151.503,-33.2119]}},{"type": "Feature","properties": {"marker-color": "#0000CD","marker-size": "medium","name": "Blue Mountain Heights", "link": "http://www.wikidata.org/entity/Q4929516"},"geometry": {"type": "Point","coordinates": [151.951,-27.499]}},{"type": "Feature","properties": {"marker-color": "#0000CD","marker-size": "medium","name": "Blue Jay", "link": "http://www.wikidata.org/entity/Q42890816"},"geometry": {"type": "Point","coordinates": [-79.1280963,41.5508953]}},{"type": "Feature","properties": {"marker-color": "#0000CD","marker-size": "medium","name": "Blauen BL", "link": "http://www.wikidata.org/entity/Q66371"},"geometry": {"type": "Point","coordinates": [7.516666666,47.449722222]}},{"type": "Feature","properties": {"marker-color": "#0000CD","marker-size": "medium","name": "Blaubeuren", "link": "http://www.wikidata.org/entity/Q505955"},"geometry": {"type": "Point","coordinates": [9.785,48.411944444]}},{"type": "Feature","properties": {"marker-color": "#0000CD","marker-size": "medium","name": "Blaufelden", "link": "http://www.wikidata.org/entity/Q83074"},"geometry": {"type": "Point","coordinates": [9.971944444,49.296944444]}},{"type": "Feature","properties": {"marker-color": "#0000CD","marker-size": "medium","name": "Blaustein", "link": "http://www.wikidata.org/entity/Q535646"},"geometry": {"type": "Point","coordinates": [9.918888888,48.416388888]}},{"type": "Feature","properties": {"marker-color": "#0000CD","marker-size": "medium","name": "Blaubach", "link": "http://www.wikidata.org/entity/Q642544"},"geometry": {"type": "Point","coordinates": [7.396111111,49.5575]}},{"type": "Feature","properties": {"marker-color": "#0000CD","marker-size": "medium","name": "Blauenthal", "link": "http://www.wikidata.org/entity/Q882580"},"geometry": {"type": "Point","coordinates": [12.625555555,50.514166666]}},{"type": "Feature","properties": {"marker-color": "#0000CD","marker-size": "medium","name": "Forlitz-Blaukirchen", "link": "http://www.wikidata.org/entity/Q1437351"},"geometry": {"type": "Point","coordinates": [7.322777777,53.424444444]}},{"type": "Feature","properties": {"marker-color": "#0000CD","marker-size": "medium","name": "Blauhand", "link": "http://www.wikidata.org/entity/Q19835532"},"geometry": {"type": "Point","coordinates": [8.0225,53.44416667]}},{"type": "Feature","properties": {"marker-color": "#0000CD","marker-size": "medium","name": "Porto Azzurro", "link": "http://www.wikidata.org/entity/Q157837"},"geometry": {"type": "Point","coordinates": [10.4,42.766666666]}},{"type": "Feature","properties": {"marker-color": "#0000CD","marker-size": "medium","name": "Baia Azzurra-Levagnole", "link": "http://www.wikidata.org/entity/Q18436445"},"geometry": {"type": "Point","coordinates": [13.8492,41.14769]}},{"type": "Feature","properties": {"marker-color": "#0000CD","marker-size": "medium","name": "Villaggio Azzurro II", "link": "http://www.wikidata.org/entity/Q18448870"},"geometry": {"type": "Point","coordinates": [8.95854,39.31454]}},{"type": "Feature","properties": {"marker-color": "#0000CD","marker-size": "medium","name": "Rivazzurra", "link": "http://www.wikidata.org/entity/Q18447956"},"geometry": {"type": "Point","coordinates": [12.60894,44.04186]}},{"type": "Feature","properties": {"marker-color": "#0000CD","marker-size": "medium","name": "Atleti Azzurri d'Italia", "link": "http://www.wikidata.org/entity/Q18448094"},"geometry": {"type": "Point","coordinates": [13.44187,45.92782]}},{"type": "Feature","properties": {"marker-color": "#0000CD","marker-size": "medium","name": "Lido Azzurro", "link": "http://www.wikidata.org/entity/Q18448170"},"geometry": {"type": "Point","coordinates": [17.13837,40.5165]}},{"type": "Feature","properties": {"marker-color": "#0000CD","marker-size": "medium","name": "Lago Azzurro", "link": "http://www.wikidata.org/entity/Q18453773"},"geometry": {"type": "Point","coordinates": [12.96349,41.54742]}},{"type": "Feature","properties": {"marker-color": "#0000CD","marker-size": "medium","name": "Villaggio Azzurro", "link": "http://www.wikidata.org/entity/Q18455376"},"geometry": {"type": "Point","coordinates": [12.44899,41.6766]}},{"type": "Feature","properties": {"marker-color": "#0000CD","marker-size": "medium","name": "Mazzurega", "link": "http://www.wikidata.org/entity/Q18505003"},"geometry": {"type": "Point","coordinates": [10.86409,45.54955]}},{"type": "Feature","properties": {"marker-color": "#0000CD","marker-size": "medium","name": "Rivazzurra", "link": "http://www.wikidata.org/entity/Q3433461"},"geometry": {"type": "Point","coordinates": [12.61167,44.03833]}},{"type": "Feature","properties": {"marker-color": "#0000CD","marker-size": "medium","name": "Mazzurega", "link": "http://www.wikidata.org/entity/Q18505003"},"geometry": {"type": "Point","coordinates": [10.86409,45.54955]}}]}
